     3.04           OBSERVATION DATA    M                   RINEX VERSION / TYPE
sbf2rin-16.2.0                          20260417 131309 UTC PGM / RUN BY / DATE 
V3RJ                                                        MARKER NAME         
Unknown                                                     MARKER NUMBER       
Unknown             ESA-EPO/ESOC                            OBSERVER / AGENCY   
3001289             SEPT POLARX4        2.9.6-patch2        REC # / TYPE / VERS 
03433               JAV_GRANT-G3T   NONE                    ANT # / TYPE        
  4072488.7388   617543.2071  4853616.0142                  APPROX POSITION XYZ 
        0.0000        0.0000        0.0000                  ANTENNA: DELTA H/E/N
G   19 X1  C1C L1C D1C S1C C1W S1W C2W L2W D2W S2W C2L L2L  SYS / # / OBS TYPES 
       D2L S2L C5Q L5Q D5Q S5Q                              SYS / # / OBS TYPES 
E   17 X1  C1C L1C D1C S1C C5Q L5Q D5Q S5Q C7Q L7Q D7Q S7Q  SYS / # / OBS TYPES 
       C8Q L8Q D8Q S8Q                                      SYS / # / OBS TYPES 
S    5 X1  C1C L1C D1C S1C                                  SYS / # / OBS TYPES 
R   13 X1  C1C L1C D1C S1C C2C L2C D2C S2C C3Q L3Q D3Q S3Q  SYS / # / OBS TYPES 
C    9 X1  C2I L2I D2I S2I C7I L7I D7I S7I                  SYS / # / OBS TYPES 
SEPTENTRIO RECEIVERS OUTPUT ALIGNED CARRIER PHASES.         COMMENT             
NO FURTHER PHASE SHIFT APPLIED IN THE RINEX ENCODER.        COMMENT             
G L1C                                                       SYS / PHASE SHIFT   
G L2W                                                       SYS / PHASE SHIFT   
G L2L  0.00000                                              SYS / PHASE SHIFT   
G L5Q  0.00000                                              SYS / PHASE SHIFT   
E L1C  0.00000                                              SYS / PHASE SHIFT   
E L5Q  0.00000                                              SYS / PHASE SHIFT   
E L7Q  0.00000                                              SYS / PHASE SHIFT   
E L8Q  0.00000                                              SYS / PHASE SHIFT   
S L1C                                                       SYS / PHASE SHIFT   
R L1C                                                       SYS / PHASE SHIFT   
R L2C                                                       SYS / PHASE SHIFT   
R L3Q  0.00000                                              SYS / PHASE SHIFT   
C L2I                                                       SYS / PHASE SHIFT   
C L7I                                                       SYS / PHASE SHIFT   
     1.000                                                  INTERVAL            
  2026     4    16    10    54    7.0000000     GPS         TIME OF FIRST OBS   
  2026     4    16    11     9    7.0000000     GPS         TIME OF LAST OBS    
    23                                                      # OF SATELLITES     
 C1C    0.000 C2C    0.000                                  GLONASS COD/PHS/BIS 
DBHZ                                                        SIGNAL STRENGTH UNIT
    18                                                      LEAP SECONDS        
  4 R09 -2 R15  0 R16 -1 R18 -3                             GLONASS SLOT / FRQ #
                                                            END OF HEADER       
> 2026 04 16 10 54  7.0000000  0 18
C12        21.000    22137428.241 7 115275403.93907      1331.830 7        47.500    22137428.192 8  89138247.15608      1029.855 8        52.500
C24        23.000    23381238.147 8 121752250.78308     -2122.669 8        48.500
C25         2.000    23765017.144 7 123750680.05207      1172.953 7        44.750
C26        30.000    26116675.685 7 135996361.13907     -3475.407 7        43.250
C34         7.000    23550905.042 7 122635730.76107      2398.040 7        43.750
E02        26.000    24330355.743 6 127856888.21906     -1918.467 6        37.250    24330361.284 6  95477555.38306     -1432.421 6        37.500    24330358.225 6  97968267.91806     -1469.881 6        37.500    24330359.486 6  96722911.15906     -1451.172 6        40.500
E34        29.000    24173477.645 8 127032482.60108      1668.334 8        48.750    24173482.232 7  94861939.87307      1245.825 7        46.500    24173478.615 7  97336582.51907      1278.318 7        45.750    24173480.050 8  96099258.70008      1262.069 8        49.250
G07        34.000    25265220.130 6 132769630.63606      1479.049 6        41.000    25265219.741 6        37.000    25265223.157 6 103456853.25706      1152.506 6        37.000    25265222.607 6 103456864.24306      1152.506 6        41.250
G08        14.000    23475014.344 5 123362041.22105      3226.533 5        34.250    23475013.835 5        30.000    23475020.179 5  96126278.16305      2514.175 5        30.000    23475020.904 6  96126289.15806      2514.186 6        39.750    23475022.308 8  92121032.53908      2409.344 8        50.250
G16         1.000    20387331.054 8 107136141.40208      -567.258 8        49.000    20387330.384 6        39.500    20387328.460 6  83482706.60206      -442.019 6        39.500
G26        13.000    21892057.988 7 115043535.73507     -2726.533 7        45.250    21892057.555 7        42.000    21892062.611 7  89644329.74307     -2124.569 7        42.000    21892061.408 6  89644339.75106     -2124.668 6        41.750    21892061.556 8  85909151.76908     -2036.007 8        48.250
G27        12.000    21067227.113 7 110709035.24007      2075.026 7        47.750    21067226.720 8        48.500    21067231.106 8  86266782.28108      1616.901 8        48.500    21067230.735 7  86266786.28707      1616.859 7        45.500    21067228.329 8  82672336.81708      1549.499 8        48.750
R09         8.000    23432119.016 6 125126220.31906      3974.322 6        39.000    23432122.133 5  97320406.09605      3090.917 5        33.500    23432105.498 5  93951606.42905      2984.076 5        35.000
R15        11.000    20854262.866 7 111438831.19207     -3412.812 7        47.500    20854264.592 7  86674669.02707     -2654.427 7        45.000
R16         4.000    20003857.933 7 106857028.63507       819.638 7        46.000    20003863.925 7  83111047.71807       637.501 7        46.500    20003848.588 7  80205909.92607       615.245 7        46.750
R18        22.000    20177409.357 7 107708382.99807      1936.610 7        47.250    20177415.041 7  83773206.28807      1506.320 7        47.000
S21         5.000    38585046.529 6 202765798.50906         4.439 6        39.500
S36        28.000    38464156.951 6 202130544.57806         0.060 6        41.000
> 2026 04 16 10 54  8.0000000  0 18
C12        21.000    22137172.594 7 115274072.30507      1331.459 7        46.250    22137172.424 8  89137217.45008      1029.529 8        51.750
C24        23.000    23381645.878 7 121754373.71107     -2123.147 7        47.250
C25         2.000    23764792.163 7 123749507.32307      1172.426 7        43.750
C26        30.000    26117343.217 7 135999836.71507     -3475.542 7        42.000
C34         7.000    23550444.353 7 122633332.85707      2397.732 7        42.250
E02        26.000    24330720.337 6 127858806.80306     -1918.757 6        36.000    24330726.548 6  95478988.11506     -1433.032 6        36.750    24330723.092 6  97969737.99206     -1470.115 6        36.750    24330724.737 6  96724362.56206     -1451.582 6        39.750
E34        29.000    24173160.428 7 127030814.46907      1667.958 7        47.750    24173164.801 7  94860694.19007      1245.428 7        46.000    24173161.067 7  97335304.34207      1277.978 7        45.000    24173162.619 8  96097996.76808      1261.715 8        48.500
G07        34.000    25264939.728 6 132768151.90306      1478.566 6        40.000    25264939.339 6        36.500    25264941.762 6 103455700.99506      1152.127 6        36.500    25264941.552 6 103455711.98606      1151.957 6        40.750
G08        14.000    23474400.095 5 123358814.98805      3226.139 5        32.750    23474399.590 4        29.750    23474406.221 4  96123764.21304      2513.876 4        29.750    23474405.631 6  96123775.19206      2513.961 6        39.250    23474408.336 8  92118623.33008      2409.074 8        49.500
G16         1.000    20387439.468 7 107136709.01507      -567.989 7        47.500    20387438.793 6        39.250    20387436.468 6  83483148.89606      -442.583 6        39.250
G26        13.000    21892577.689 7 115046262.54107     -2727.097 7        44.000    21892577.256 6        41.500    21892581.476 6  89646454.52206     -2125.009 6        41.500    21892580.533 6  89646464.51906     -2124.966 6        41.250    21892580.376 7  85911188.01107     -2036.490 7        47.500
G27        12.000    21066832.036 7 110706960.42207      2074.696 7        46.500    21066831.647 8        48.500    21066836.258 8  86265165.53908      1616.647 8        48.500    21066835.484 7  86265169.54007      1616.643 7        45.000    21066833.507 8  82670787.44008      1549.271 8        48.000
R09         8.000    23431374.191 6 125122246.27306      3973.822 6        38.000    23431377.397 5  97317315.20005      3090.465 5        33.250    23431361.331 5  93948622.49705      2983.862 5        33.750
R15        11.000    20854901.150 7 111442244.36507     -3413.523 7        46.250    20854903.480 7  86677323.70907     -2654.994 7        44.500
R16         4.000    20003704.668 7 106856209.49207       818.657 7        44.750    20003710.549 7  83110410.60307       636.719 7        46.000    20003695.305 7  80205295.08907       614.423 7        46.000
R18        22.000    20177046.682 7 107706446.67207      1936.055 7        46.250    20177052.008 7  83771700.26207      1505.769 7        46.500
S21         5.000    38585046.636 6 202765794.02106         4.517 6        38.500
S36        28.000    38464154.303 6 202130544.50006         0.071 6        39.500
> 2026 04 16 10 54  9.0000000  0 18
C12        21.000    22136917.019 7 115272741.01907      1330.596 7        47.750    22136916.634 8  89136188.01608      1028.891 8        52.250
C24        23.000    23382053.659 8 121756497.10508     -2124.225 8        48.500
C25         2.000    23764566.994 7 123748335.17107      1171.376 7        45.000
C26        30.000    26118010.611 7 136003312.34307     -3476.220 7        43.500
C34         7.000    23549983.811 7 122630935.19907      2396.913 7        43.750
E02        26.000    24331085.414 6 127860725.75906     -1919.672 6        37.500    24331092.108 6  95480421.09006     -1433.702 6        37.500    24331088.356 6  97971208.36006     -1470.894 6        37.500    24331089.854 6  96725814.23306     -1452.263 6        40.500
E34        29.000    24172842.951 8 127029146.72908      1666.996 8        49.000    24172847.392 7  94859448.79807      1244.808 7        46.500    24172844.002 7  97334026.46407      1277.216 7        45.750    24172845.227 8  96096735.13208      1261.030 8        49.000
G07        34.000    25264657.823 6 132766673.72506      1477.242 6        41.500    25264657.439 6        36.500    25264660.470 6 103454549.16706      1151.096 6        36.500    25264659.961 6 103454560.15606      1151.145 6        41.250
G08        14.000    23473785.949 5 123355588.91905      3225.444 5        34.500    23473785.449 5        30.000    23473792.299 5  96121250.39405      2513.333 5        30.000    23473792.326 6  96121261.38406      2513.269 6        39.750    23473794.338 8  92116214.25208      2408.601 8        50.250
G16         1.000    20387546.837 8 107137277.33508      -569.257 8        49.000    20387546.162 6        39.250    20387544.619 6  83483591.74206      -443.577 6        39.250
G26        13.000    21893096.008 7 115048989.80807     -2728.086 7        45.250    21893095.579 6        41.500    21893100.421 6  89648579.66206     -2125.783 6        41.500    21893098.946 6  89648589.66106     -2125.790 6        41.750    21893099.245 8  85913224.60608     -2037.178 8        48.250
G27        12.000    21066437.433 8 110704886.03308      2073.581 8        48.250    21066437.040 8        48.500    21066441.485 8  86263549.13308      1615.771 8        48.500    21066441.011 7  86263553.12807      1615.933 7        45.500    21066438.592 8  82669238.38608      1548.513 8        48.750
R09         8.000    23430629.599 6 125118272.62106      3972.951 6        39.000    23430633.431 5  97314224.55705      3090.276 5        33.750    23430617.181 5  93945638.86205      2983.107 5        35.000
R15        11.000    20855539.912 7 111445658.17207     -3414.721 7        47.500    20855542.788 7  86679978.89407     -2655.910 7        45.250
R16         4.000    20003551.354 7 106855391.32007       817.122 7        46.250    20003557.239 7  83109774.25507       635.522 7        46.500    20003542.125 7  80204680.97907       613.257 7        46.750
R18        22.000    20176684.118 7 107704510.86307      1934.959 7        47.750    20176689.328 7  83770194.63307      1504.968 7        47.000
S21         5.000    38585044.221 6 202765789.58206         3.858 6        40.000
S36        28.000    38464155.587 6 202130544.44906        -0.486 6        41.250
> 2026 04 16 10 54 10.0000000  0 18
C12        21.000    22136661.385 8 115271409.92408      1330.927 8        48.000    22136660.831 8  89135158.73008      1029.124 8        52.250
C24        23.000    23382461.439 8 121758620.81708     -2123.976 8        48.750
C25         2.000    23764341.844 7 123747163.42707      1171.536 7        45.000
C26        30.000    26118677.970 7 136006787.89907     -3475.657 7        43.750
C34         7.000    23549523.364 7 122628537.60607      2397.565 7        44.000
E02        26.000    24331450.710 6 127862644.94106     -1919.446 6        37.750    24331456.849 6  95481854.24706     -1433.396 6        37.750    24331453.487 6  97972678.89906     -1470.683 6        37.750    24331455.043 6  96727266.07906     -1452.039 6        40.750
E34        29.000    24172525.408 8 127027479.21608      1667.386 8        49.250    24172530.085 7  94858203.58007      1245.089 7        46.500    24172526.468 7  97332748.75907      1277.562 7        45.750    24172527.894 8  96095473.67208      1261.316 8        49.250
G07        34.000    25264377.028 6 132765195.89006      1477.722 6        41.750    25264376.639 6        36.750    25264379.241 6 103453397.61006      1151.467 6        36.750    25264378.973 6 103453408.61306      1151.296 6        41.250
G08        14.000    23473172.438 5 123352362.83405      3226.240 5        34.500    23473171.942 5        30.250    23473178.381 5  96118736.56105      2513.950 5        30.250    23473179.092 6  96118747.57206      2513.747 6        39.750    23473180.639 8  92113805.19008      2408.958 8        50.250
G16         1.000    20387655.291 8 107137846.20208      -569.222 8        49.000    20387654.621 6        39.500    20387652.868 6  83484035.01406      -443.550 6        39.500
G26        13.000    21893614.788 7 115051717.39007     -2727.822 7        45.250    21893614.355 6        41.750    21893619.411 6  89650705.05006     -2125.573 6        41.750    21893618.785 6  89650715.04106     -2125.530 6        41.750    21893618.468 8  85915261.43208     -2036.995 8        48.250
G27        12.000    21066042.925 8 110702811.89008      2073.925 8        48.000    21066042.536 8        48.750    21066046.766 8  86261932.91908      1616.046 8        48.750    21066046.372 7  86261936.92807      1616.015 7        45.500    21066044.016 8  82667689.51808      1548.688 8        48.750
R09         8.000    23429885.941 6 125114299.18706      3973.253 6        39.250    23429889.443 5  97311134.13305      3089.993 5        34.000    23429873.103 5  93942655.39205      2983.369 5        34.500
R15        11.000    20856178.272 7 111449072.43407     -3414.589 7        47.500    20856181.626 7  86682634.43607     -2655.796 7        45.250
R16         4.000    20003398.420 7 106854573.94207       816.909 7        46.250    20003404.050 7  83109138.51807       635.351 7        46.750    20003389.097 7  80204067.45807       613.144 7        46.750
R18        22.000    20176321.796 8 107702575.40708      1935.228 8        48.000    20176326.764 7  83768689.27707      1505.159 7        47.000
S21         5.000    38585043.068 6 202765784.99306         4.500 6        40.000
S36        28.000    38464154.549 6 202130544.27706         0.156 6        41.250
> 2026 04 16 10 54 11.0000000  0 18
C12        21.000    22136405.769 8 115270079.41408      1330.586 8        48.000    22136405.219 8  89134129.89308      1028.924 8        52.250
C24        23.000    23382869.381 8 121760745.25008     -2124.395 8        48.750
C25         2.000    23764116.930 7 123745992.50607      1170.933 7        45.000
C26        30.000    26119345.588 7 136010263.75707     -3475.569 7        43.750
C34         7.000    23549063.091 7 122626140.50707      2397.311 7        44.000
E02        26.000    24331815.822 6 127864564.73406     -1919.805 6        37.500    24331821.922 6  95483287.84606     -1433.517 6        37.750    24331818.782 6  97974149.92406     -1470.893 6        37.500    24331820.343 6  96728718.39006     -1452.205 6        40.500
E34        29.000    24172208.473 8 127025812.33808      1666.948 8        49.250    24172212.757 7  94856958.83707      1244.773 7        46.500    24172209.300 7  97331471.54407      1277.241 7        45.750    24172210.767 8  96094212.69408      1261.011 8        49.000
G07        34.000    25264095.619 7 132763718.86307      1477.002 7        42.000    25264095.230 6        36.750    25264098.173 6 103452246.68006      1150.915 6        36.750    25264098.034 6 103452257.67406      1151.021 6        41.250
G08        14.000    23472556.740 5 123349137.21705      3225.913 5        34.750    23472556.244 5        30.250    23472564.557 5  96116223.09505      2513.700 5        30.250    23472563.971 6  96116234.09306      2513.708 6        39.750    23472566.775 8  92111396.43608      2408.960 8        50.250
G16         1.000    20387763.867 8 107138416.01008      -569.871 8        49.250    20387763.192 6        39.500    20387761.291 6  83484479.01906      -444.054 6        39.500
G26        13.000    21894134.444 7 115054445.68207     -2728.243 7        45.250    21894134.011 6        41.750    21894138.544 6  89652830.98806     -2125.899 6        41.750    21894137.838 6  89652840.98506     -2125.939 6        41.750    21894137.645 8  85917298.79608     -2037.337 8        48.250
G27        12.000    21065648.161 8 110700738.40108      2073.531 8        48.000    21065647.772 8        48.750    21065652.167 8  86260317.21308      1615.738 8        48.750    21065651.859 7  86260321.21407      1615.750 7        45.250    21065649.395 8  82666141.13208      1548.452 8        48.750
R09         8.000    23429142.431 6 125110326.36606      3972.894 6        39.250    23429144.144 5  97308044.14305      3090.250 5        34.000    23429129.119 5  93939672.40205      2983.175 5        34.500
R15        11.000    20856817.254 7 111452487.55007     -3415.170 7        47.250    20856820.746 7  86685290.63107     -2656.234 7        45.250
R16         4.000    20003245.397 7 106853757.74707       816.034 7        46.000    20003251.206 7  83108503.70407       634.607 7        46.750    20003236.297 7  80203454.83907       612.459 7        46.500
R18        22.000    20175959.277 8 107700640.73008      1934.692 8        48.000    20175964.442 7  83767184.52607      1504.769 7        46.750
S21         5.000    38585043.300 6 202765780.71706         4.429 6        40.000
S36        28.000    38464154.299 6 202130544.39006         0.147 6        41.000
> 2026 04 16 10 54 12.0000000  0 18
C12        21.000    22136150.448 8 115268749.23008      1330.277 8        48.000    22136149.715 8  89133101.31308      1028.655 8        52.250
C24        23.000    23383277.412 8 121762870.12708     -2124.846 8        48.750
C25         2.000    23763892.025 7 123744822.13007      1170.344 7        45.000
C26        30.000    26120013.201 7 136013739.66607     -3475.664 7        43.750
C34         7.000    23548602.822 7 122623743.62307      2396.888 7        43.750
E02        26.000    24332181.511 6 127866484.87206     -1920.062 6        37.500    24332187.410 6  95484721.71506     -1433.646 6        37.500    24332184.181 6  97975621.17106     -1471.172 6        37.750    24332185.697 6  96730170.94906     -1452.408 6        40.750
E34        29.000    24171891.314 8 127024145.81908      1666.655 8        49.250    24171895.692 7  94855714.36007      1244.538 7        46.500    24171892.101 7  97330194.59707      1277.083 7        45.750    24171893.599 8  96092951.98208      1260.784 8        49.250
G07        34.000    25263815.182 7 132762242.33207      1476.600 7        42.000    25263814.793 6        36.750    25263817.185 6 103451096.13506      1150.605 6        36.750    25263816.228 6 103451107.12106      1150.565 6        41.250
G08        14.000    23471944.580 5 123345911.73605      3225.693 5        34.750    23471944.089 5        30.250    23471950.737 5  96113709.73005      2513.527 5        30.250    23471951.435 6  96113720.72406      2513.445 6        39.750    23471952.933 8  92108987.80108      2408.755 8        50.250
G16         1.000    20387872.406 8 107138986.50408      -570.558 8        49.250    20387871.736 6        39.750    20387869.835 6  83484923.55706      -444.588 6        39.750
G26        13.000    21894653.224 7 115057174.41507     -2728.765 7        45.250    21894652.791 6        41.750    21894657.762 6  89654957.27106     -2126.307 6        41.750    21894656.685 6  89654967.26406     -2126.342 6        41.750    21894656.930 8  85919336.48208     -2037.716 8        48.250
G27        12.000    21065254.045 7 110698665.30607      2073.167 7        47.750    21065253.652 8        48.750    21065257.645 8  86258701.81308      1615.453 8        48.750    21065257.140 7  86258705.81607      1615.512 7        45.500    21065254.792 8  82664593.04408      1548.121 8        48.750
R09         8.000    23428398.085 6 125106353.92006      3972.714 6        39.500    23428400.723 5  97304954.48305      3089.729 5        34.250    23428385.216 5  93936689.65305      2983.021 5        34.750
R15        11.000    20857456.347 7 111455903.24407     -3415.727 7        47.500    20857459.938 7  86687947.28607     -2656.669 7        45.500
R16         4.000    20003092.950 7 106852942.46007       815.139 7        46.250    20003098.857 7  83107869.58707       634.026 7        46.750    20003083.717 7  80202842.88007       611.825 7        46.500
R18        22.000    20175596.825 8 107698706.55908      1934.157 8        48.000    20175602.254 7  83765680.17307      1504.435 7        46.750
S21         5.000    38585041.766 6 202765776.44806         4.446 6        40.250
S36        28.000    38464153.311 6 202130544.50706         0.263 6        41.000
> 2026 04 16 10 54 13.0000000  0 18
C12        21.000    22135895.043 8 115267419.10308      1329.614 8        48.000    22135894.193 8  89132072.77708      1028.112 8        52.250
C24        23.000    23383685.484 8 121764995.17208     -2125.666 8        48.500
C25         2.000    23763667.335 7 123743652.01207      1169.534 7        44.750
C26        30.000    26120680.658 7 136017215.34207     -3476.055 7        43.500
C34         7.000    23548142.464 7 122621346.65907      2396.548 7        43.750
E02        26.000    24332547.111 6 127868405.07506     -1920.753 6        37.750    24332553.215 6  95486155.63406     -1434.354 6        37.500    24332549.821 6  97977092.50406     -1471.629 6        38.000    24332551.203 6  96731623.57406     -1452.976 6        40.750
E34        29.000    24171574.151 8 127022479.39108      1665.857 8        49.250    24171578.743 7  94854469.94307      1244.025 7        46.500    24171575.161 7  97328917.72507      1276.409 7        45.750    24171576.463 8  96091691.33808      1260.199 8        49.250
G07        34.000    25263533.742 7 132760766.02007      1475.688 7        42.000    25263533.353 6        36.750    25263536.242 6 103449945.76206      1149.887 6        36.750    25263535.437 6 103449956.75706      1149.838 6        41.250
G08        14.000    23471331.426 5 123342686.10905      3225.368 5        34.750    23471330.944 5        30.500    23471336.900 5  96111196.25705      2513.266 5        30.500    23471336.694 6  96111207.25206      2513.188 6        40.000    23471339.126 8  92106579.06508      2408.389 8        50.250
G16         1.000    20387980.772 8 107139557.40308      -571.593 8        49.250    20387980.097 6        39.750    20387978.464 6  83485368.41506      -445.399 6        39.750
G26        13.000    21895172.441 7 115059903.31207     -2729.504 7        45.250    21895172.008 6        41.750    21895177.007 6  89657083.68106     -2126.888 6        41.750    21895175.827 6  89657093.67806     -2126.864 6        41.750    21895176.148 8  85921374.29508     -2038.255 8        48.250
G27        12.000    21064859.134 7 110696592.33207      2072.392 7        47.750    21064858.745 8        48.750    21064863.145 8  86257086.50808      1614.852 8        48.750    21064862.890 7  86257090.51507      1614.813 7        45.500    21064860.364 8  82663045.04508      1547.543 8        48.750
R09         8.000    23427653.913 6 125102381.50706      3971.963 6        39.500    23427657.790 5  97301864.83505      3089.212 5        34.250    23427641.178 5  93933706.95605      2982.113 5        34.750
R15        11.000    20858095.717 7 111459319.27407     -3416.715 7        47.250    20858099.178 7  86690604.19607     -2657.434 7        45.500
R16         4.000    20002940.482 7 106852127.77507       813.843 7        46.000    20002946.505 7  83107235.94907       632.953 7        46.750    20002931.221 7  80202231.38607       610.902 7        46.500
R18        22.000    20175234.494 8 107696772.60608      1933.377 8        48.250    20175239.766 7  83764175.99107      1503.738 7        46.750
S21         5.000    38585042.996 6 202765771.92906         4.127 6        40.000
S36        28.000    38464154.111 6 202130544.32806        -0.129 6        41.000
> 2026 04 16 10 54 14.0000000  0 18
C12        21.000    22135639.829 8 115266089.23108      1329.936 8        48.000    22135638.703 8  89131044.44008      1028.350 8        52.250
C24        23.000    23384093.577 8 121767120.61208     -2125.517 8        48.250
C25         2.000    23763442.806 7 123742482.38207      1169.593 7        44.500
C26        30.000    26121348.199 7 136020691.00607     -3475.441 7        43.500
C34         7.000    23547682.062 7 122618949.86207      2396.961 7        43.500
E02        26.000    24332912.300 6 127870325.56306     -1920.347 6        37.500    24332918.574 6  95487589.77006     -1434.151 6        37.750    24332915.484 6  97978564.07806     -1471.729 6        37.750    24332916.570 6  96733076.42906     -1452.912 6        40.750
E34        29.000    24171257.059 8 127020813.26008      1666.175 8        49.250    24171261.535 7  94853225.75907      1244.232 7        46.500    24171257.909 7  97327641.08007      1276.649 7        45.750    24171259.447 8  96090430.92208      1260.456 8        49.250
G07        34.000    25263253.108 6 132759290.16506      1475.770 6        41.750    25263252.719 6        36.750    25263255.393 6 103448795.74506      1149.953 6        36.750    25263254.624 6 103448806.74306      1149.937 6        41.000
G08        14.000    23470717.191 5 123339460.58105      3225.848 5        35.250    23470716.704 5        30.500    23470723.098 5  96108682.86105      2513.647 5        30.500    23470722.566 6  96108693.88206      2513.491 6        39.500    23470725.360 8  92104170.40508      2408.700 8        50.250
G16         1.000    20388090.286 8 107140128.92008      -571.629 8        49.250    20388089.616 6        39.500    20388087.214 6  83485813.75106      -445.421 6        39.500
G26        13.000    21895692.259 7 115062632.59207     -2729.329 7        45.250    21895691.826 6        41.750    21895696.319 6  89659210.39306     -2126.746 6        41.750    21895695.174 6  89659220.38506     -2126.660 6        41.750    21895695.438 8  85923412.39408     -2038.203 8        48.000
G27        12.000    21064465.081 7 110694519.67807      2072.683 7        47.500    21064464.692 8        48.750    21064468.703 8  86255471.45508      1615.078 8        48.750    21064468.019 7  86255475.46007      1615.068 7        45.250    21064466.002 8  82661497.29108      1547.699 8        48.750
R09         8.000    23426910.242 6 125098409.40506      3971.981 6        39.250    23426913.931 5  97298775.42105      3089.233 5        34.250    23426897.458 5  93930724.46605      2982.560 5        34.500
R15        11.000    20858734.949 7 111462735.86707     -3416.729 7        47.000    20858738.325 7  86693261.54807     -2657.457 7        45.250
R16         4.000    20002788.066 7 106851313.92707       813.681 7        46.000    20002794.152 7  83106602.96607       632.716 7        46.750    20002778.913 7  80201620.53307       610.599 7        46.500
R18        22.000    20174872.369 7 107694839.10307      1933.431 7        47.750    20174877.739 7  83762672.15107      1503.783 7        46.500
S21         5.000    38585042.965 6 202765767.33806         4.821 6        39.750
S36        28.000    38464155.958 6 202130544.13006         0.454 6        40.750
> 2026 04 16 10 54 15.0000000  0 18
C12        21.000    22135384.638 8 115264759.54108      1329.958 8        48.000    22135383.221 8  89130016.23508      1028.418 8        52.250
C24        23.000    23384501.738 8 121769246.34108     -2125.532 8        48.250
C25         2.000    23763218.371 7 123741313.16307      1169.354 7        44.750
C26        30.000    26122015.732 7 136024166.56707     -3475.231 7        43.500
C34         7.000    23547221.632 7 122616553.12007      2397.170 7        43.500
E02        26.000    24333277.761 6 127872246.26806     -1920.501 6        37.500    24333283.632 6  95489024.05306     -1434.024 6        37.750    24333281.052 6  97980035.77606     -1471.627 6        38.000    24333282.072 6  96734529.42106     -1452.830 6        40.750
E34        29.000    24170940.383 8 127019147.34708      1666.169 8        49.000    24170944.591 7  94851981.73207      1244.207 7        46.500    24170940.723 7  97326364.60607      1276.587 7        45.750    24170942.418 8  96089170.67108      1260.418 8        49.000
G07        34.000    25262972.428 7 132757814.66507      1475.614 7        42.000    25262972.039 6        36.500    25262974.606 6 103447646.00406      1149.826 6        36.500    25262973.815 6 103447656.99506      1149.873 6        40.750
G08        14.000    23470103.935 5 123336235.09505      3225.815 5        35.250    23470103.453 5        30.750    23470109.318 5  96106169.49605      2513.629 5        30.750    23470110.061 6  96106180.48806      2513.566 6        39.750    23470111.545 8  92101761.73608      2408.958 8        50.500
G16         1.000    20388198.817 8 107140700.96908      -571.967 8        49.250    20388198.147 6        39.500    20388196.067 6  83486259.50206      -445.688 6        39.500
G26        13.000    21896211.651 7 115065362.16307     -2729.404 7        45.000    21896211.222 6        41.750    21896215.684 6  89661337.33006     -2126.805 6        41.750    21896215.376 6  89661347.32606     -2126.843 6        41.500    21896214.830 8  85925450.70908     -2038.227 8        48.250
G27        12.000    21064070.635 7 110692447.27407      2072.696 7        47.750    21064070.246 8        48.750    21064074.311 8  86253856.59508      1615.093 8        48.750    21064073.948 7  86253860.59907      1615.092 7        45.250    21064071.511 8  82659949.71008      1547.794 8        48.750
R09         8.000    23426166.558 6 125094437.50206      3972.098 6        39.250    23426169.527 5  97295686.17905      3089.276 5        34.500    23426153.626 5  93927742.17105      2982.612 5        34.500
R15        11.000    20859374.364 7 111466152.91907     -3416.927 7        47.000    20859377.928 7  86695919.25607     -2657.566 7        45.250
R16         4.000    20002635.763 7 106850500.87107       812.985 7        46.000    20002641.934 7  83105970.57507       632.318 7        46.500    20002626.748 7  80201010.25207       610.236 7        46.750
R18        22.000    20174510.083 8 107692905.95408      1933.302 8        48.000    20174515.516 7  83761168.59307      1503.681 7        46.500
S21         5.000    38585040.930 6 202765762.64106         5.036 6        39.750
S36        28.000    38464159.468 6 202130543.83606         0.755 6        41.000
> 2026 04 16 10 54 16.0000000  0 18
C12        21.000    22135129.595 8 115263430.61108      1328.085 8        48.250    22135127.923 8  89128988.61908      1026.948 8        52.250
C24        23.000    23384910.118 8 121771372.96608     -2127.533 8        48.250
C25         2.000    23762994.061 7 123740144.91107      1167.329 7        44.500
C26        30.000    26122683.323 7 136027642.61207     -3476.725 7        43.500
C34         7.000    23546761.404 7 122614157.04407      2395.357 7        43.250
E02        26.000    24333643.652 6 127874167.76406     -1922.375 6        37.250    24333649.787 6  95490458.92606     -1435.424 6        38.000    24333646.084 6  97981508.06406     -1472.904 6        38.000    24333647.779 6  96735983.00206     -1454.108 6        40.750
E34        29.000    24170623.426 8 127017482.23808      1664.258 8        49.000    24170627.741 7  94850738.31007      1242.788 7        46.750    24170624.007 7  97325088.74207      1275.166 7        45.500    24170625.505 8  96087911.02908      1258.980 8        49.250
G07        34.000    25262691.606 7 132756340.12007      1473.583 7        42.000    25262691.217 6        36.500    25262693.994 6 103446497.01206      1148.244 6        36.500    25262693.462 6 103446508.00706      1148.206 6        40.750
G08        14.000    23469490.070 5 123333010.16305      3224.293 5        35.500    23469489.588 5        30.750    23469495.642 5  96103656.56205      2512.440 5        30.750    23469495.266 6  96103667.56406      2512.479 6        39.750    23469497.855 8  92099353.52408      2407.729 8        50.500
G16         1.000    20388307.656 8 107141274.13408      -574.123 8        49.500    20388306.986 6        39.500    20388305.143 6  83486706.12706      -447.370 6        39.500
G26        13.000    21896730.659 7 115068092.61607     -2731.364 7        45.000    21896730.226 6        41.500    21896735.224 6  89663464.95306     -2128.335 6        41.500    21896734.290 7  89663474.95207     -2128.288 7        42.000    21896734.460 8  85927489.68208     -2039.645 8        48.250
G27        12.000    21063676.332 7 110690375.70607      2070.736 7        47.750    21063675.943 8        48.750    21063680.079 8  86252242.38708      1613.563 8        48.750    21063679.408 7  86252246.39107      1613.563 7        45.500    21063677.293 8  82658402.76208      1546.294 8        48.750
R09         8.000    23425423.038 6 125090466.39406      3970.171 6        39.500    23425426.343 5  97292597.53005      3088.079 5        34.750    23425409.883 5  93924760.42505      2981.032 5        34.500
R15        11.000    20860014.102 7 111469571.02007     -3419.108 7        47.000    20860017.648 7  86698577.76707     -2659.238 7        45.500
R16         4.000    20002484.000 7 106849689.18207       810.517 7        46.000    20002489.979 7  83105339.25607       630.423 7        46.750    20002474.744 7  80200401.00607       608.312 7        46.500
R18        22.000    20174148.208 8 107690973.78008      1931.237 8        48.000    20174153.569 7  83759665.79907      1502.049 7        46.500
S21         5.000    38585039.553 6 202765758.41706         3.530 6        39.750
S36        28.000    38464159.146 6 202130544.03906        -0.896 6        41.250
> 2026 04 16 10 54 17.0000000  0 18
C12        21.000    22134874.619 8 115262102.13908      1327.760 8        48.500    22134872.875 8  89127961.35708      1026.755 8        52.250
C24        23.000    23385318.498 8 121773500.15708     -2127.961 8        48.500
C25         2.000    23762769.889 7 123738977.32907      1166.851 7        45.000
C26        30.000    26123350.775 7 136031118.82107     -3476.750 7        43.500
C34         7.000    23546301.301 7 122611761.29607      2395.121 7        43.500
E02        26.000    24334009.180 6 127876089.70206     -1922.646 6        37.750    24334015.230 6  95491894.15506     -1435.681 6        37.750    24334012.113 6  97982980.73306     -1472.993 6        37.750    24334013.468 6  96737436.95106     -1454.324 6        40.750
E34        29.000    24170306.710 8 127015817.61408      1664.002 8        49.250    24170310.908 7  94849495.25307      1242.545 7        46.750    24170307.206 7  97323813.25007      1275.024 7        45.750    24170308.802 8  96086651.75408      1258.801 8        49.250
G07        34.000    25262410.770 7 132754866.20407      1473.196 7        42.250    25262410.381 6        36.500    25262413.516 6 103445348.50606      1147.946 6        36.500    25262413.538 6 103445359.50106      1147.923 6        41.000
G08        14.000    23468875.768 6 123329785.52706      3224.052 6        36.000    23468875.286 5        31.000    23468881.992 5  96101143.86005      2512.248 5        31.000    23468882.359 6  96101154.85606      2512.332 6        39.750    23468884.201 8  92096945.51208      2407.619 8        50.500
G16         1.000    20388416.894 8 107141848.12108      -574.886 8        49.750    20388416.224 6        39.500    20388414.372 6  83487153.38906      -447.967 6        39.500
G26        13.000    21897250.297 7 115070823.64507     -2731.714 7        45.250    21897249.864 6        41.500    21897254.876 6  89665593.02706     -2128.609 6        41.500    21897253.816 7  89665603.02007     -2128.659 7        42.000    21897254.179 8  85929529.08308     -2039.904 8        48.000
G27        12.000    21063282.301 8 110688304.65008      2070.383 8        48.000    21063281.912 8        48.750    21063285.946 8  86250628.57708      1613.283 8        48.750    21063285.516 7  86250632.58307      1613.286 7        45.500    21063283.227 8  82656856.19408      1546.062 8        49.000
R09         8.000    23424679.300 6 125086495.74606      3969.885 6        40.000    23424683.459 5  97289509.23805      3087.709 5        35.000    23424666.239 5  93921779.05005      2980.893 5        34.500
R15        11.000    20860653.839 7 111472989.85107     -3419.601 7        47.250    20860657.537 7  86701236.86307     -2659.733 7        45.750
R16         4.000    20002332.515 7 106848878.54707       809.623 7        46.250    20002338.297 7  83104708.76607       629.687 7        46.500    20002322.991 7  80199792.54807       607.786 7        46.750
R18        22.000    20173786.520 8 107689042.23408      1930.746 8        48.250    20173791.622 7  83758163.48507      1501.692 7        46.750
S21         5.000    38585037.800 6 202765754.32606         3.698 6        40.250
S36        28.000    38464158.332 6 202130544.42806        -0.761 6        41.500
> 2026 04 16 10 54 18.0000000  0 18
C12        21.000    22134619.562 8 115260773.20208      1328.585 8        48.250    22134617.666 8  89126933.74208      1027.332 8        52.250
C24        23.000    23385726.913 8 121775627.00708     -2127.277 8        48.000
C25         2.000    23762545.517 7 123737809.51707      1167.371 7        44.500
C26        30.000    26124018.227 7 136034594.30207     -3475.757 7        43.000
C34         7.000    23545840.978 7 122609364.98907      2395.994 7        43.000
E02        26.000    24334374.337 6 127878011.23806     -1921.928 6        37.250    24334381.223 6  95493329.07806     -1435.274 6        37.750    24334377.364 6  97984453.06706     -1472.507 6        37.750    24334379.198 6  96738890.57906     -1453.870 6        40.750
E34        29.000    24169989.824 8 127014152.57208      1664.670 8        49.000    24169994.192 7  94848251.88007      1243.073 7        46.750    24169990.409 7  97322537.43807      1275.559 7        45.500    24169991.948 8  96085392.16108      1259.323 8        49.250
G07        34.000    25262131.517 7 132753392.00607      1473.753 7        42.000    25262131.128 6        36.500    25262132.980 6 103444199.77806      1148.378 6        36.500    25262131.580 6 103444210.77506      1148.422 6        40.500
G08        14.000    23468262.011 6 123326560.23906      3225.106 6        36.000    23468261.529 5        31.250    23468268.222 5  96098630.65005      2513.067 5        31.250    23468267.292 6  96098641.65406      2513.032 6        39.250    23468270.368 8  92094537.03808      2408.192 8        50.250
G16         1.000    20388526.287 8 107142421.98708      -574.396 8        49.250    20388525.617 6        39.750    20388523.569 6  83487600.55906      -447.582 6        39.750
G26        13.000    21897770.240 7 115073554.31807     -2731.065 7        44.750    21897769.807 6        41.500    21897774.456 6  89667720.82106     -2128.106 6        41.500    21897774.412 6  89667730.81606     -2128.134 6        41.750    21897773.853 8  85931568.22408     -2039.483 8        48.250
G27        12.000    21062887.752 7 110686233.18707      2071.120 7        47.500    21062887.363 8        48.500    21062891.736 8  86249014.44908      1613.857 8        48.500    21062891.414 7  86249018.46007      1613.878 7        45.250    21062889.040 8  82655309.33008      1546.515 8        48.750
R09         8.000    23423935.710 6 125082524.63506      3970.679 6        39.500    23423940.159 5  97286420.59305      3088.343 5        34.750    23423922.603 5  93918797.31905      2981.423 5        34.250
R15        11.000    20861293.755 7 111476408.45907     -3419.105 7        46.750    20861297.185 7  86703895.76707     -2659.216 7        45.750
R16         4.000    20002180.815 7 106848068.02307       809.883 7        46.000    20002186.374 7  83104078.36407       629.912 7        46.250    20002171.233 7  80199184.18407       607.898 7        46.500
R18        22.000    20173424.569 8 107687110.35708      1931.392 8        48.000    20173429.721 7  83756660.91407      1502.247 7        46.500
S21         5.000    38585036.678 6 202765749.49806         4.689 6        39.750
S36        28.000    38464159.705 6 202130544.05806         0.142 6        41.000
> 2026 04 16 10 54 19.0000000  0 18
C12        21.000    22134364.554 8 115259444.45108      1328.946 8        48.500    22134362.448 8  89125906.26508      1027.590 8        52.250
C24        23.000    23386135.432 8 121777754.17208     -2127.004 8        48.250
C25         2.000    23762321.417 7 123736642.10407      1167.466 7        44.750
C26        30.000    26124685.680 7 136038069.67207     -3475.005 7        43.500
C34         7.000    23545380.468 7 122606968.74007      2396.584 7        43.250
E02        26.000    24334740.930 6 127879932.96006     -1921.487 6        37.750    24334747.007 6  95494764.12706     -1434.993 6        37.750    24334743.157 6  97985925.57206     -1472.356 6        37.750    24334744.847 6  96740344.35806     -1453.687 6        40.750
E34        29.000    24169673.094 8 127012487.74608      1664.954 8        49.500    24169677.302 7  94847008.66207      1243.326 7        46.750    24169673.367 7  97321261.79907      1275.780 7        45.750    24169675.102 8  96084132.73408      1259.553 8        49.250
G07        34.000    25261850.248 7 132751918.17507      1473.905 7        42.250    25261849.859 6        36.500    25261852.510 6 103443051.33806      1148.498 6        36.500    25261851.661 6 103443062.33906      1148.514 6        41.000
G08        14.000    23467647.543 6 123323334.96706      3225.518 6        36.750    23467647.061 5        31.250    23467654.474 5  96096117.45705      2513.386 5        31.250    23467655.328 6  96096128.46706      2513.309 6        39.750    23467656.776 8  92092128.55608      2408.666 8        50.500
G16         1.000    20388635.395 8 107142996.39508      -574.401 8        49.500    20388634.725 6        39.750    20388632.877 6  83488048.15006      -447.586 6        39.750
G26        13.000    21898289.842 7 115076285.29607     -2730.803 7        45.000    21898289.409 6        41.500    21898294.095 6  89669848.85406     -2127.896 6        41.500    21898293.075 7  89669858.86007     -2127.946 7        42.000    21898293.518 8  85933607.58508     -2039.270 8        48.250
G27        12.000    21062493.869 8 110684161.98808      2071.377 8        48.000    21062493.480 8        48.500    21062497.576 8  86247400.52808      1614.061 8        48.500    21062497.679 7  86247404.53307      1614.070 7        45.500    21062494.929 8  82653762.64808      1546.812 8        48.750
R09         8.000    23423191.887 6 125078553.70406      3971.164 6        40.000    23423196.372 5  97283332.09905      3088.761 5        35.250    23423179.017 5  93915815.72905      2981.984 5        34.250
R15        11.000    20861933.492 7 111479827.49307     -3418.964 7        47.250    20861937.329 7  86706555.02407     -2659.263 7        46.250
R16         4.000    20002029.455 7 106847258.26807       809.670 7        46.250    20002034.763 7  83103448.55507       629.718 7        46.500    20002019.627 7  80198576.38907       607.718 7        46.750
R18        22.000    20173062.802 8 107685178.82008      1931.640 8        48.500    20173067.998 7  83755158.61507      1502.334 7        46.750
S21         5.000    38585037.849 6 202765744.55306         5.346 6        40.000
S36        28.000    38464157.836 6 202130543.53006         1.039 6        41.250
> 2026 04 16 10 54 20.0000000  0 18
C12        21.000    22134109.591 8 115258116.16208      1328.251 8        48.000    22134107.364 8  89124879.14108      1027.084 8        52.000
C24        23.000    23386543.991 7 121779881.90907     -2127.838 7        47.750
C25         2.000    23762097.478 7 123735475.37407      1166.572 7        44.250
C26        30.000    26125353.163 7 136041545.21907     -3475.434 7        42.750
C34         7.000    23544920.146 7 122604572.85007      2395.931 7        42.500
E02        26.000    24335106.131 6 127881855.16906     -1922.192 6        37.000    24335112.589 6  95496199.53806     -1435.556 6        37.500    24335109.128 6  97987398.41806     -1472.857 6        37.250    24335110.594 6  96741798.48706     -1454.246 6        40.500
E34        29.000    24169356.423 8 127010823.41408      1664.287 8        48.750    24169360.470 7  94845765.81807      1242.817 7        46.500    24169356.758 7  97319986.53107      1275.172 7        45.250    24169358.413 8  96082873.67808      1258.982 8        48.750
G07        34.000    25261570.628 6 132750444.98906      1472.999 6        41.500    25261570.235 6        36.500    25261572.167 6 103441903.40306      1147.789 6        36.500    25261571.751 6 103441914.38206      1147.873 6        40.250
G08        14.000    23467036.294 6 123320109.97606      3224.961 6        36.250    23467035.807 5        31.250    23467040.775 5  96093604.48005      2512.957 5        31.250    23467040.278 6  96093615.47306      2513.151 6        39.500    23467043.064 8  92089720.28208      2408.255 8        50.000
G16         1.000    20388745.048 8 107143571.61908      -575.492 8        49.000    20388744.373 6        39.750    20388742.334 6  83488496.37606      -448.438 6        39.750
G26        13.000    21898809.937 7 115079016.85207     -2731.661 7        44.500    21898809.508 6        41.500    21898813.845 6  89671977.34106     -2128.564 6        41.500    21898814.006 6  89671987.33006     -2128.549 6        41.750    21898813.259 8  85935647.38108     -2039.861 8        48.000
G27        12.000    21062100.040 7 110682091.30207      2070.518 7        47.250    21062099.651 8        48.500    21062103.510 8  86245787.00608      1613.390 8        48.500    21062103.345 7  86245791.00707      1613.485 7        45.250    21062100.961 8  82652216.35608      1546.189 8        48.500
R09         8.000    23422448.515 6 125074583.28506      3970.335 6        39.250    23422452.821 5  97280244.02205      3088.063 5        35.000    23422435.471 5  93912834.51805      2981.323 5        34.000
R15        11.000    20862573.471 7 111483247.25007     -3419.958 7        46.750    20862577.468 7  86709214.83107     -2659.984 7        45.750
R16         4.000    20001877.800 7 106846449.55707       808.333 7        46.000    20001883.332 7  83102819.55707       628.703 7        46.000    20001868.245 7  80197969.37207       606.789 7        46.500
R18        22.000    20172701.222 8 107683247.94008      1930.732 8        48.000    20172706.279 7  83753656.81507      1501.719 7        46.250
S21         5.000    38585038.583 6 202765739.74806         4.966 6        39.500
S36        28.000    38464156.977 6 202130543.15406         0.450 6        40.750
> 2026 04 16 10 54 21.0000000  0 18
C12        21.000    22133854.655 8 115256788.51008      1327.174 8        48.500    22133852.347 8  89123852.52408      1026.188 8        52.000
C24        23.000    23386952.742 8 121782010.40908     -2129.094 8        48.000
C25         2.000    23761873.754 7 123734309.50807      1165.358 7        44.750
C26        30.000    26126020.718 7 136045021.14807     -3476.291 7        43.250
C34         7.000    23544460.070 7 122602177.47507      2395.004 7        43.000
E02        26.000    24335472.881 6 127883778.04606     -1923.324 6        37.250    24335478.443 6  95497635.44506     -1436.440 6        37.750    24335475.429 6  97988871.80406     -1473.945 6        37.500    24335476.476 6  96743253.13106     -1455.174 6        40.750
E34        29.000    24169039.774 8 127009159.76708      1663.115 8        49.250    24169043.812 7  94844523.48507      1241.937 7        46.500    24169040.060 7  97318711.79007      1274.336 7        45.500    24169041.848 8  96081615.13908      1258.161 8        49.000
G07        34.000    25261289.891 7 132748972.63107      1471.663 7        42.000    25261289.502 6        36.250    25261291.988 6 103440756.11106      1146.750 6        36.250    25261292.091 6 103440767.09506      1146.941 6        40.000
G08        14.000    23466422.121 6 123316885.45606      3224.127 6        36.500    23466421.634 5        31.250    23466427.147 5  96091091.86805      2512.306 5        31.250    23466426.830 6  96091102.88306      2512.253 6        39.000    23466429.504 8  92087312.37108      2407.599 8        50.000
G16         1.000    20388854.724 8 107144147.84108      -576.894 8        49.500    20388854.054 6        39.500    20388851.978 6  83488945.38006      -449.526 6        39.500
G26        13.000    21899329.217 7 115081749.17307     -2732.816 7        45.000    21899328.788 6        41.250    21899333.738 6  89674106.42106     -2129.462 6        41.250    21899333.555 6  89674116.40506     -2129.414 6        41.500    21899332.906 8  85937687.75208     -2040.770 8        48.000
G27        12.000    21061706.028 7 110680021.31807      2069.445 7        47.500    21061705.644 8        48.250    21061709.578 8  86244174.03308      1612.554 8        48.250    21061709.167 7  86244178.04507      1612.473 7        44.750    21061706.989 8  82650670.59408      1545.323 8        48.500
R09         8.000    23421705.390 6 125070613.53406      3969.260 6        39.750    23421709.258 5  97277156.42605      3087.489 5        34.500    23421691.997 5  93909853.83705      2980.220 5        34.250
R15        11.000    20863213.789 7 111486667.95807     -3421.423 7        47.250    20863218.162 7  86711875.38107     -2661.064 7        45.500
R16         4.000    20001726.691 7 106845642.07707       806.680 7        46.250    20001732.133 7  83102191.52707       627.348 7        45.500    20001717.131 7  80197363.29207       605.476 7        46.500
R18        22.000    20172339.687 8 107681317.90608      1929.390 8        48.500    20172344.878 7  83752155.68707      1500.590 7        45.750
S21         5.000    38585034.961 6 202765735.27606         4.093 6        39.750
S36        28.000    38464157.648 6 202130543.08106        -0.305 6        41.000
> 2026 04 16 10 54 22.0000000  0 18
C12        21.000    22133599.898 8 115255461.59208      1326.555 8        48.500    22133597.528 8  89122826.46208      1025.795 8        52.250
C24        23.000    23387361.622 8 121784139.76408     -2129.730 8        48.250
C25         2.000    23761650.065 7 123733144.59807      1164.532 7        44.500
C26        30.000    26126688.341 7 136048497.50307     -3476.556 7        43.500
C34         7.000    23543999.998 7 122599782.72707      2394.524 7        43.000
E02        26.000    24335838.498 6 127885701.68606     -1923.915 6        37.500    24335844.705 6  95499071.93006     -1436.821 6        38.000    24335840.739 6  97990345.74906     -1474.270 6        38.000    24335842.536 6  96744708.34406     -1455.506 6        41.000
E34        29.000    24168723.478 8 127007496.88808      1662.517 8        49.250    24168727.485 7  94843281.72707      1241.471 7        46.750    24168723.871 7  97317437.63007      1273.955 7        45.750    24168725.401 8  96080357.18108      1257.711 8        49.250
G07        34.000    25261009.391 6 132747501.18006      1471.039 6        41.750    25261008.998 6        36.000    25261011.971 6 103439609.52606      1146.263 6        36.000    25261011.094 6 103439620.51906      1146.242 6        40.500
G08        14.000    23465808.592 6 123313661.49506      3223.899 6        37.250    23465808.105 5        31.500    23465813.623 5  96088579.69405      2512.129 5        31.500    23465813.650 6  96088590.70306      2512.014 6        39.500    23465815.926 8  92084904.88508      2407.280 8        50.250
G16         1.000    20388964.462 8 107144725.15508      -577.770 8        49.250    20388963.792 6        39.500    20388961.832 6  83489395.23306      -450.212 6        39.500
G26        13.000    21899848.994 7 115084482.33407     -2733.461 7        44.750    21899848.565 6        41.250    21899853.797 6  89676236.15306     -2129.966 6        41.250    21899853.658 7  89676246.15007     -2130.076 7        42.000    21899853.211 8  85939728.74708     -2041.246 8        48.000
G27        12.000    21061312.225 7 110677952.14507      2068.779 7        47.750    21061311.836 8        48.250    21061315.802 8  86242561.69108      1612.033 8        48.250    21061315.713 7  86242565.69307      1612.084 7        45.500    21061313.240 8  82649125.42908      1544.888 8        48.750
R09         8.000    23420961.920 6 125066644.54206      3968.722 6        40.000    23420966.190 5  97274069.41705      3086.712 5        35.500    23420948.858 5  93906873.69605      2979.637 5        34.500
R15        11.000    20863854.635 7 111490089.71007     -3422.183 7        47.500    20863858.445 7  86714536.74607     -2661.724 7        46.250
R16         4.000    20001575.751 7 106844835.94207       805.499 7        46.500    20001581.274 7  83101564.53307       626.493 7        46.250    20001566.254 7  80196758.21707       604.581 7        46.750
R18        22.000    20171978.321 8 107679388.78808      1928.707 8        48.500    20171983.540 7  83750655.26107      1500.143 7        46.250
S21         5.000    38585032.524 6 202765731.24906         3.820 6        40.000
S36        28.000    38464157.237 6 202130543.45106        -0.550 6        41.250
> 2026 04 16 10 54 23.0000000  0 18
C12        21.000    22133345.207 8 115254135.24008      1326.477 8        48.750    22133342.864 8  89121800.84008      1025.677 8        52.250
C24        23.000    23387770.655 8 121786269.81708     -2130.029 8        48.250
C25         2.000    23761426.314 7 123731980.46507      1164.104 7        45.000
C26        30.000    26127355.967 7 136051974.16107     -3476.489 7        43.500
C34         7.000    23543540.118 7 122597388.43907      2394.425 7        43.250
E02        26.000    24336204.089 6 127887625.89806     -1924.091 6        37.500    24336211.114 6  95500508.85006     -1436.860 6        37.750    24336207.018 6  97991820.14106     -1474.205 6        38.000    24336208.753 6  96746164.00606     -1455.608 6        41.000
E34        29.000    24168407.057 8 127005834.62608      1662.329 8        49.500    24168411.323 7  94842040.42407      1241.350 7        46.750    24168407.321 7  97316163.95207      1273.705 7        45.750    24168409.033 8  96079099.69208      1257.512 8        49.250
G07        34.000    25260730.580 7 132746030.49807      1470.732 7        42.250    25260730.191 6        36.000    25260732.096 6 103438463.54106      1146.024 6        36.000    25260732.400 6 103438474.52206      1145.953 6        40.500
G08        14.000    23465194.791 6 123310437.95406      3223.708 6        37.500    23465194.304 5        31.500    23465200.174 5  96086067.84205      2511.981 5        31.500    23465199.933 6  96086078.84606      2512.060 6        39.750    23465202.401 8  92082497.68008      2407.341 8        50.500
G16         1.000    20389074.289 8 107145303.39508      -578.262 8        49.500    20389073.619 6        39.500    20389071.866 6  83489845.81006      -450.594 6        39.500
G26        13.000    21900369.554 7 115087216.19307     -2733.759 7        45.000    21900369.125 6        41.250    21900373.980 6  89678366.43006     -2130.193 6        41.250    21900374.101 7  89678376.42107     -2130.220 7        42.250    21900373.533 8  85941770.26108     -2041.463 8        48.250
G27        12.000    21060918.928 8 110675883.61008      2068.575 8        48.000    21060918.539 8        48.250    21060922.143 8  86240949.84608      1611.883 8        48.250    21060921.879 7  86240953.84907      1611.875 7        45.750    21060919.657 8  82647580.75008      1544.675 8        49.000
R09         8.000    23420218.794 6 125062676.16106      3968.490 6        40.250    23420222.653 5  97270982.89205      3086.706 5        35.500    23420205.715 5  93903894.02505      2979.717 5        34.250
R15        11.000    20864495.553 7 111493512.35207     -3422.743 7        47.750    20864498.969 7  86717198.79307     -2662.054 7        46.250
R16         4.000    20001425.169 7 106844030.99207       804.734 7        46.750    20001430.584 7  83100938.45907       625.986 7        46.500    20001415.573 7  80196154.02307       604.079 7        47.000
R18        22.000    20171616.911 8 107677460.41808      1928.405 8        48.750    20171622.300 7  83749155.42307      1499.847 7        46.250
S21         5.000    38585031.728 6 202765727.50506         4.001 6        40.000
S36        28.000    38464157.107 6 202130544.15406        -0.435 6        41.500
> 2026 04 16 10 54 24.0000000  0 18
C12        21.000    22133090.365 8 115252808.59008      1326.501 8        48.750    22133088.098 8  89120774.98608      1025.705 8        52.250
C24        23.000    23388179.630 8 121788399.68208     -2130.069 8        48.250
C25         2.000    23761202.612 7 123730816.25707      1164.032 7        45.000
C26        30.000    26128023.473 7 136055450.23507     -3475.954 7        43.500
C34         7.000    23543080.248 7 122594993.73307      2394.656 7        43.250
E02        26.000    24336571.344 6 127889549.85606     -1924.245 6        37.500    24336577.389 6  95501945.54806     -1436.788 6        37.750    24336573.293 6  97993294.34906     -1474.402 6        38.000    24336574.890 6  96747619.45906     -1455.665 6        40.750
E34        29.000    24168090.609 8 127004172.09508      1662.339 8        49.500    24168094.911 7  94840798.92307      1241.385 7        46.750    24168091.110 7  97314890.06407      1273.796 7        45.750    24168092.680 8  96077841.99608      1257.579 8        49.250
G07        34.000    25260450.348 7 132744559.69307      1470.595 7        42.250    25260449.955 6        36.000    25260452.200 6 103437317.45806      1145.918 6        36.000    25260452.128 6 103437328.44406      1146.001 6        40.500
G08        14.000    23464581.673 6 123307213.92206      3224.040 6        37.750    23464581.186 5        31.750    23464586.641 5  96083555.60905      2512.241 5        31.750    23464585.957 6  96083566.61806      2512.142 6        39.500    23464588.913 8  92080090.13208      2407.467 8        50.500
G16         1.000    20389184.269 8 107145881.68708      -578.620 8        49.750    20389183.599 6        39.750    20389181.908 6  83490296.42706      -450.875 6        39.750
G26        13.000    21900890.256 7 115089949.86007     -2733.845 7        45.000    21900889.827 6        41.500    21900894.129 6  89680496.55906     -2130.267 6        41.500    21900894.254 7  89680506.54607     -2130.202 7        42.250    21900893.659 8  85943811.63408     -2041.539 8        48.250
G27        12.000    21060524.835 7 110673814.84207      2068.600 7        47.750    21060524.446 8        48.250    21060528.448 8  86239337.81808      1611.897 8        48.250    21060528.426 7  86239341.81907      1611.915 7        45.500    21060526.024 8  82646035.88308      1544.695 8        49.000
R09         8.000    23419475.682 6 125058707.49306      3968.474 6        40.250    23419479.675 5  97267896.14405      3086.709 5        35.500    23419462.142 5  93900914.13005      2979.485 5        34.250
R15        11.000    20865136.569 7 111496934.95007     -3422.915 7        47.750    20865139.475 7  86719860.81907     -2662.328 7        46.250
R16         4.000    20001274.543 7 106843226.32507       804.211 7        46.750    20001280.047 7  83100312.60507       625.438 7        46.500    20001264.951 7  80195550.05107       603.593 7        46.750
R18        22.000    20171255.421 8 107675531.88708      1928.319 8        48.500    20171260.729 7  83747655.44807      1499.724 7        46.000
S21         5.000    38585030.288 6 202765723.14106         4.272 6        40.000
S36        28.000    38464158.931 6 202130544.21506        -0.085 6        41.500
> 2026 04 16 10 54 25.0000000  0 18
C12        21.000    22132835.612 8 115251482.52208      1325.717 8        48.750    22132833.417 8  89119749.58408      1025.168 8        52.500
C24        23.000    23388588.864 8 121790530.26908     -2130.959 8        48.250
C25         2.000    23760979.152 7 123729652.86707      1162.982 7        45.000
C26        30.000    26128691.162 7 136058926.62707     -3476.512 7        43.750
C34         7.000    23542620.462 7 122592599.50907      2394.018 7        43.250
E02        26.000    24336937.171 6 127891474.41306     -1924.774 6        37.750    24336943.562 6  95503382.72306     -1437.329 6        38.000    24336939.886 6  97994769.02306     -1475.037 6        38.250    24336941.102 6  96749075.38006     -1456.190 6        41.000
E34        29.000    24167774.586 8 127002510.20008      1661.554 8        49.500    24167778.736 7  94839557.90907      1240.653 7        46.750    24167774.685 7  97313616.66907      1273.104 7        46.000    24167776.451 8  96076584.79308      1256.855 8        49.250
G07        34.000    25260170.273 7 132743089.67107      1469.685 7        42.250    25260169.876 6        36.000    25260172.441 6 103436171.98306      1145.213 6        36.000    25260171.301 6 103436182.96906      1145.145 6        40.500
G08        14.000    23463968.573 6 123303990.32506      3223.304 6        38.000    23463968.086 5        32.000    23463973.188 5  96081043.72105      2511.666 5        32.000    23463973.635 6  96081054.72106      2511.818 6        39.750    23463975.616 8  92077682.89608      2407.018 8        50.500
G16         1.000    20389294.740 8 107146460.92808      -579.754 8        49.750    20389294.065 6        40.000    20389292.129 6  83490747.78106      -451.754 6        40.000
G26        13.000    21901409.975 7 115092684.24107     -2734.765 7        45.250    21901409.551 6        41.500    21901414.406 6  89682627.24406     -2130.985 6        41.500    21901414.469 7  89682637.24107     -2130.981 7        42.000    21901413.731 8  85945853.54508     -2042.237 8        48.250
G27        12.000    21060131.064 7 110671746.72307      2067.789 7        47.500    21060130.675 8        48.250    21060134.874 8  86237726.29608      1611.274 8        48.250    21060134.713 7  86237730.30307      1611.208 7        45.750    21060132.526 8  82644491.51408      1544.109 8        49.000
R09         8.000    23418732.597 6 125054739.42406      3967.682 6        40.500    23418736.272 6  97264809.89106      3085.902 6        36.000    23418719.025 5  93897934.66405      2979.267 5        34.250
R15        11.000    20865777.674 7 111500358.39007     -3423.865 7        47.750    20865779.892 7  86722523.49007     -2662.931 7        46.250
R16         4.000    20001124.140 7 106842422.86007       802.828 7        46.750    20001129.662 7  83099687.67707       624.493 7        46.250    20001114.557 7  80194946.97207       602.602 7        46.750
R18        22.000    20170894.288 8 107673604.14208      1927.344 8        48.750    20170899.364 7  83746156.09807      1499.045 7        45.750
S21         5.000    38585030.623 6 202765719.05906         3.863 6        40.250
S36        28.000    38464155.600 6 202130544.57106        -0.505 6        41.500
> 2026 04 16 10 54 26.0000000  0 19
C12        21.000    22132580.846 8 115250156.72608      1325.498 8        48.750    22132578.780 8  89118724.39608      1024.951 8        52.250
C24        23.000    23388998.071 8 121792661.25108     -2131.367 8        48.250
C25         2.000    23760755.804 7 123728489.98207      1162.375 7        45.000
C26        30.000    26129358.722 7 136062403.01407     -3476.607 7        43.500
C34         7.000    23542160.685 7 122590205.46207      2393.736 7        43.000
E02        26.000    24337303.214 6 127893399.30606     -1925.375 6        37.500    24337309.385 6  95504820.12706     -1437.683 6        38.000    24337306.510 6  97996243.90906     -1475.061 6        38.000    24337307.386 6  96750531.52306     -1456.398 6        41.000
E27        18.000    27681274.791 6 145466078.86416      2775.529 6        38.000                                                                    27681274.688 6 111461023.62216      2126.815 6        41.500
E34        29.000    24167458.367 8 127000848.62008      1661.181 8        49.500    24167462.382 7  94838317.11007      1240.508 7        46.750    24167458.496 7  97312343.50507      1272.913 7        45.750    24167460.249 8  96075327.81108      1256.709 8        49.250
G07        34.000    25259889.991 7 132741620.10407      1469.084 7        42.500    25259889.598 6        36.000    25259892.782 6 103435026.86606      1144.742 6        36.000    25259892.482 6 103435037.85506      1144.758 6        40.250
G08        14.000    23463355.009 6 123300766.82806      3223.073 6        38.250    23463354.527 5        32.250    23463359.744 5  96078531.90605      2511.485 5        32.250    23463360.424 6  96078542.91106      2511.644 6        39.250    23463362.150 8  92075275.74208      2406.935 8        50.500
G16         1.000    20389404.890 8 107147040.80408      -580.417 8        49.750    20389404.215 6        40.000    20389402.471 6  83491199.63106      -452.266 6        40.000
G26        13.000    21901930.780 7 115095419.02307     -2735.206 7        45.250    21901930.351 6        41.750    21901934.760 6  89684758.24306     -2131.326 6        41.750    21901934.747 7  89684768.22907     -2131.398 7        42.000    21901934.264 8  85947895.74108     -2042.503 8        48.000
G27        12.000    21059737.512 7 110669678.95707      2067.316 7        47.500    21059737.123 8        48.500    21059741.367 8  86236115.04908      1610.901 8        48.500    21059741.724 7  86236119.05007      1610.978 7        45.750    21059738.961 8  82642947.40208      1543.809 8        49.000
R09         8.000    23417989.856 6 125050771.65906      3967.464 6        40.500    23417994.234 6  97261723.84206      3085.942 6        36.500    23417976.110 5  93894955.45505      2978.989 5        34.000
R15        11.000    20866418.467 7 111503782.37207     -3424.491 7        47.750    20866420.466 7  86725186.58607     -2663.417 7        46.250
R16         4.000    20000973.835 7 106841620.27307       801.885 7        46.750    20000979.510 7  83099063.44207       623.753 7        46.250    20000964.302 7  80194344.54807       601.986 7        46.750
R18        22.000    20170533.075 8 107671676.88008      1926.820 8        48.750    20170538.034 7  83744657.11507      1498.622 7        45.750
S21         5.000    38585031.245 6 202765714.95906         3.877 6        40.250
S36        28.000    38464155.864 6 202130544.93706        -0.530 6        41.750
> 2026 04 16 10 54 27.0000000  0 19
C12        21.000    22132326.142 8 115248831.10808      1326.028 8        48.500    22132324.220 8  89117699.34008      1025.420 8        52.250
C24        23.000    23389407.385 8 121794792.53008     -2130.881 8        48.250
C25         2.000    23760532.459 7 123727327.48207      1162.727 7        45.000
C26        30.000    26130026.250 7 136065879.29107     -3475.580 7        43.500
C34         7.000    23541700.873 7 122587811.46407      2394.452 7        43.000
E02        26.000    24337670.254 6 127895324.35506     -1924.526 6        37.750    24337676.232 6  95506257.67806     -1437.265 6        38.000    24337672.266 6  97997718.95606     -1474.769 6        38.000    24337673.755 6  96751987.82306     -1455.977 6        41.000
E27        18.000    27680745.584 6 145463302.98006      2776.392 6        37.500    27680743.004 5 108625181.31815      2073.609 5        34.250    27680746.626 6 111458896.65106      2127.345 6        41.500    27680746.000 6 110042032.98116      2100.390 6        41.500
E34        29.000    24167142.147 8 126999187.25208      1661.791 8        49.500    24167146.301 7  94837076.47907      1240.992 7        46.750    24167142.209 7  97311070.51107      1273.346 7        45.750    24167144.119 8  96074070.99908      1257.162 8        49.250
G07        34.000    25259611.356 7 132740150.90207      1469.445 7        42.500    25259610.963 6        36.000    25259613.185 6 103433882.03106      1145.024 6        36.000    25259613.565 6 103433893.02906      1145.023 6        40.250
G08        14.000    23462742.034 6 123297543.33406      3223.907 6        38.500    23462741.547 5        32.500    23462746.304 5  96076020.09305      2512.136 5        32.500    23462745.267 6  96076031.10006      2512.146 6        39.250    23462748.826 8  92072868.58908      2407.604 8        50.500
G16         1.000    20389516.206 8 107147621.21508      -580.197 8        49.750    20389515.536 6        40.000    20389512.915 6  83491651.89806      -452.103 6        40.000
G26        13.000    21902451.402 7 115098154.08607     -2734.597 7        45.250    21902450.978 6        41.750    21902455.167 6  89686889.46106     -2130.859 6        41.750    21902455.074 7  89686899.44907     -2130.763 7        42.000    21902454.640 8  85949938.16108     -2042.049 8        48.000
G27        12.000    21059344.242 7 110667611.42107      2067.973 7        47.500    21059343.853 8        48.500    21059347.904 8  86234503.98308      1611.405 8        48.500    21059347.770 7  86234507.99207      1611.396 7        45.500    21059345.708 8  82641403.46508      1544.254 8        49.000
R09         8.000    23417246.905 6 125046804.07906      3968.030 6        40.500    23417250.621 6  97258637.94706      3086.401 6        36.000    23417233.320 5  93891976.35505      2979.689 5        33.750
R15        11.000    20867059.375 7 111507206.78307     -3424.059 7        47.500    20867061.258 7  86727850.02507     -2663.213 7        46.250
R16         4.000    20000823.584 7 106840818.43907       801.955 7        46.500    20000829.357 7  83098439.79207       623.840 7        46.000    20000814.149 7  80193742.70207       601.998 7        46.750
R18        22.000    20170172.068 8 107669749.96208      1927.296 8        48.750    20170176.776 7  83743158.39907      1499.121 7        45.500
S21         5.000    38585031.576 6 202765710.73006         4.863 6        40.250
S36        28.000    38464156.875 6 202130545.19906         0.296 6        41.750
> 2026 04 16 10 54 28.0000000  0 19
C12        21.000    22132071.466 8 115247505.43808      1325.170 8        48.500    22132069.628 8  89116674.24908      1024.734 8        52.250
C24        23.000    23389816.664 8 121796923.87108     -2131.839 8        48.250
C25         2.000    23760309.276 7 123726165.14307      1161.735 7        45.000
C26        30.000    26130693.609 7 136069355.24407     -3476.245 7        43.500
C34         7.000    23541240.890 7 122585417.29507      2393.775 7        43.000
E02        26.000    24338036.439 6 127897249.38406     -1925.426 6        37.750    24338042.414 6  95507695.19006     -1437.769 6        38.000    24338038.228 6  97999193.97206     -1475.407 6        38.000    24338040.066 6  96753444.09006     -1456.608 6        41.000
E27        18.000    27680217.660 6 145460526.82906      2775.566 6        37.750    27680214.699 5 108623108.22605      2072.637 5        34.250    27680218.281 6 111456769.46806      2126.897 6        41.500    27680217.932 6 110039932.83806      2099.810 6        41.500
E34        29.000    24166825.972 8 126997525.85708      1660.936 8        49.250    24166830.157 7  94835835.83107      1240.303 7        46.750    24166826.370 7  97309797.49507      1272.714 7        45.750    24166827.944 8  96072814.16608      1256.496 8        49.250
G07        34.000    25259332.210 7 132738681.81007      1468.547 7        42.500    25259331.821 6        36.000    25259333.619 6 103432737.28406      1144.316 6        36.000    25259333.073 6 103432748.26806      1144.379 6        40.250
G08        14.000    23462127.199 6 123294319.60106      3223.223 6        38.750    23462126.712 5        32.750    23462132.811 5  96073508.09505      2511.604 5        32.750    23462131.264 6  96073519.09206      2511.708 6        39.250    23462135.257 8  92070461.25808      2407.002 8        50.500
G16         1.000    20389626.096 8 107148201.90208      -581.273 8        49.750    20389625.426 6        40.000    20389623.413 6  83492104.38106      -452.946 6        40.000
G26        13.000    21902971.922 7 115100889.20207     -2735.599 7        45.500    21902971.498 6        41.750    21902975.593 6  89689020.71806     -2131.640 6        41.750    21902975.687 6  89689030.70906     -2131.629 6        41.750    21902975.092 8  85951980.62208     -2042.784 8        48.000
G27        12.000    21058950.618 7 110665543.89107      2067.048 7        47.500    21058950.229 8        48.500    21058954.437 8  86232892.92208      1610.682 8        48.500    21058954.629 7  86232896.92707      1610.730 7        45.750    21058952.264 8  82639859.53808      1543.578 8        49.000
R09         8.000    23416503.878 6 125042836.46006      3967.122 6        40.500    23416507.549 6  97255552.04906      3085.434 6        36.250    23416490.297 5  93888997.28205      2978.777 5        34.000
R15        11.000    20867700.105 7 111510631.41407     -3425.179 7        47.250    20867702.077 7  86730513.62007     -2663.987 7        46.250
R16         4.000    20000673.691 7 106840017.11807       800.625 7        46.500    20000679.052 7  83097816.54307       622.666 7        46.000    20000664.175 7  80193141.24307       600.906 7        46.750
R18        22.000    20169811.136 8 107667823.14808      1926.266 8        48.750    20169815.621 7  83741659.77807      1498.206 7        45.250
S21         5.000    38585031.719 6 202765706.11306         4.164 6        40.250
S36        28.000    38464156.195 6 202130544.98906        -0.147 6        41.500
> 2026 04 16 10 54 29.0000000  0 19
C12        21.000    22131817.062 8 115246180.79508      1324.470 8        48.250    22131815.291 8  89115649.94608      1024.246 8        52.250
C24        23.000    23390226.180 7 121799056.36407     -2132.723 7        47.750
C25         2.000    23760086.272 7 123725004.06507      1160.765 7        44.750
C26        30.000    26131361.124 7 136072831.92507     -3476.701 7        43.000
C34         7.000    23540781.342 7 122583024.05107      2393.108 7        42.500
E02        26.000    24338402.397 6 127899175.46306     -1926.217 6        37.500    24338409.100 6  95509133.50706     -1438.472 6        37.750    24338405.156 6  98000669.79706     -1475.945 6        38.000    24338406.551 6  96754901.15806     -1457.209 6        40.750
E27        18.000    27679689.588 6 145457751.50706      2775.194 6        37.250    27679686.838 5 108621035.73305      2072.486 5        34.000    27679690.164 6 111454642.91406      2126.636 6        41.250    27679689.623 6 110037833.32006      2099.577 6        41.250
E34        29.000    24166510.016 8 126995865.53908      1660.178 8        48.750    24166514.273 7  94834595.97707      1239.805 7        46.500    24166510.262 7  97308525.30207      1272.118 7        45.750    24166511.979 8  96071558.14108      1255.976 8        49.000
G07        34.000    25259052.416 7 132737213.95107      1467.615 7        42.000    25259052.023 6        36.000    25259054.276 6 103431593.49506      1143.604 6        36.000    25259054.844 6 103431604.49006      1143.644 6        40.000
G08        14.000    23461514.694 6 123291096.70506      3222.902 6        38.500    23461514.212 5        32.750    23461519.479 5  96070996.75005      2511.351 5        32.750    23461519.085 6  96071007.76406      2511.273 6        39.000    23461521.867 8  92068054.56908      2406.674 8        50.250
G16         1.000    20389737.628 8 107148783.99108      -582.450 8        49.500    20389736.958 6        40.000    20389734.184 6  83492557.95606      -453.849 6        40.000
G26        13.000    21903492.508 7 115103625.48107     -2736.548 7        45.250    21903492.084 6        41.750    21903496.237 6  89691152.88506     -2132.369 6        41.750    21903496.040 6  89691162.87606     -2132.274 6        41.500    21903495.705 7  85954023.93407     -2043.340 7        47.750
G27        12.000    21058557.697 7 110663477.46507      2066.353 7        47.250    21058557.308 8        48.250    21058561.189 8  86231282.72008      1610.147 8        48.250    21058561.484 7  86231286.73407      1610.090 7        45.500    21058559.047 8  82638316.42708      1543.039 8        49.000
R09         8.000    23415761.105 6 125038869.91306      3966.359 6        40.250    23415765.134 6  97252466.94406      3085.128 6        36.250    23415747.368 5  93886018.98205      2978.225 5        33.750
R15        11.000    20868341.041 7 111514057.38907     -3426.250 7        46.750    20868343.075 7  86733178.26307     -2664.874 7        46.000
R16         4.000    20000523.874 7 106839217.45507       799.214 7        46.000    20000529.119 7  83097194.57907       621.655 7        45.750    20000514.501 7  80192541.01107       600.036 7        46.500
R18        22.000    20169450.424 8 107665897.54808      1925.373 8        48.500    20169454.757 7  83740162.07807      1497.551 7        45.000
S21         5.000    38585030.650 6 202765702.21506         4.001 6        39.750
S36        28.000    38464156.459 6 202130545.48406        -0.401 6        41.000
> 2026 04 16 10 54 30.0000000  0 19
C12        21.000    22131562.474 8 115244855.68108      1325.215 8        48.500    22131560.864 8  89114625.29408      1024.668 8        52.500
C24        23.000    23390635.539 8 121801188.50208     -2132.205 8        48.000
C25         2.000    23759863.268 7 123723842.72207      1161.246 7        45.000
C26        30.000    26132028.545 7 136076307.85707     -3475.697 7        43.500
C34         7.000    23540321.494 7 122580630.20607      2393.929 7        42.750
E02        26.000    24338769.115 6 127901101.08706     -1925.517 6        38.000    24338775.196 6  95510571.46906     -1438.099 6        37.750    24338771.632 6  98002145.28106     -1475.484 6        38.000    24338772.992 6  96756357.88306     -1456.787 6        40.750
E27        18.000    27679161.449 6 145454975.49506      2776.135 6        37.500    27679158.641 5 108618962.74905      2073.050 5        34.250    27679161.914 6 111452515.85206      2127.167 6        41.250    27679161.355 6 110035733.29706      2100.086 6        41.500
E34        29.000    24166194.051 8 126994204.77408      1660.825 8        49.250    24166198.129 7  94833355.79907      1240.209 7        46.750    24166194.324 7  97307252.76607      1272.615 7        45.750    24166195.996 8  96070301.78608      1256.397 8        49.250
G07        34.000    25258773.467 7 132735745.78807      1468.150 7        42.250    25258773.074 6        36.000    25258774.872 6 103430449.46906      1144.014 6        36.000    25258774.898 6 103430460.46506      1144.051 6        40.250
G08        14.000    23460902.529 6 123287873.18706      3223.651 6        39.000    23460902.051 5        33.000    23460906.035 5  96068484.92105      2511.933 5        33.000    23460905.892 6  96068495.93106      2511.935 6        39.000    23460908.468 8  92065647.39408      2407.252 8        50.500
G16         1.000    20389847.553 8 107149365.94708      -582.085 8        49.750    20389846.878 6        40.000    20389844.924 6  83493011.42706      -453.571 6        40.000
G26        13.000    21904013.009 7 115106361.38007     -2735.875 7        45.500    21904012.580 6        41.750    21904016.806 6  89693284.75306     -2131.853 6        41.750    21904016.484 6  89693294.73806     -2131.879 6        41.250    21904016.417 8  85956066.98908     -2043.062 8        48.000
G27        12.000    21058164.301 7 110661410.62007      2066.924 7        47.750    21058163.912 8        48.250    21058167.856 8  86229672.19208      1610.592 8        48.250    21058168.111 7  86229676.20607      1610.548 7        45.500    21058165.728 8  82636773.00808      1543.435 8        49.000
R09         8.000    23415017.515 6 125034902.89006      3967.061 6        40.500    23415022.872 6  97249381.48206      3085.431 6        36.250    23415004.583 5  93883040.32305      2978.683 5        34.000
R15        11.000    20868981.753 7 111517483.16807     -3425.879 7        47.000    20868984.351 7  86735842.75507     -2664.577 7        46.250
R16         4.000    20000374.097 7 106838417.89107       799.335 7        46.250    20000379.646 7  83096572.69707       621.730 7        46.000    20000364.822 7  80191940.87607       599.964 7        46.750
R18        22.000    20169089.595 8 107663971.64108      1925.837 8        49.000    20169093.803 7  83738664.15107      1497.870 7        45.250
S21         5.000    38585028.325 6 202765697.54506         4.904 6        40.250
S36        28.000    38464153.686 6 202130545.24606         0.355 6        41.500
> 2026 04 16 10 54 31.0000000  0 19
C12        21.000    22131307.797 8 115243530.54908      1325.156 8        48.250    22131306.384 8  89113600.61708      1024.694 8        52.500
C24        23.000    23391045.019 8 121803320.74508     -2132.269 8        48.000
C25         2.000    23759640.335 7 123722681.58507      1161.089 7        45.000
C26        30.000    26132695.930 7 136079783.49307     -3475.460 7        43.250
C34         7.000    23539861.882 7 122578236.25407      2393.977 7        42.750
E02        26.000    24339135.573 6 127903026.70906     -1925.526 6        38.000    24339141.717 6  95512009.43406     -1437.866 6        37.750    24339137.930 6  98003620.75106     -1475.489 6        38.000    24339139.329 6  96757814.60006     -1456.703 6        41.000
E27        18.000    27678633.087 6 145452199.25806      2776.352 6        37.750    27678630.327 5 108616889.58205      2073.424 5        34.250    27678633.748 6 111450388.61606      2127.348 6        41.500    27678633.051 6 110033633.09506      2100.368 6        41.500
E34        29.000    24165877.782 8 126992544.03808      1660.686 8        49.250    24165882.231 7  94832115.63807      1240.147 7        46.750    24165878.171 7  97305980.25907      1272.470 7        45.750    24165879.973 8  96069045.45108      1256.320 8        49.250
G07        34.000    25258492.963 7 132734277.80107      1467.931 7        42.000    25258492.570 6        36.000    25258495.507 6 103429305.58106      1143.848 6        36.000    25258495.230 6 103429316.56506      1143.889 6        40.250
G08        14.000    23460288.705 6 123284649.47206      3223.794 6        39.500    23460288.227 5        33.000    23460292.551 5  96065972.93805      2512.040 5        33.000    23460292.028 6  96065983.94006      2512.179 6        39.000    23460295.032 8  92063240.07508      2407.412 8        50.500
G16         1.000    20389957.994 8 107149948.24408      -582.458 8        49.500    20389957.319 6        40.000    20389955.726 6  83493465.16606      -453.862 6        40.000
G26        13.000    21904533.439 7 115109097.37707     -2736.073 7        45.500    21904533.015 6        41.750    21904537.396 6  89695416.69806     -2132.004 6        41.750    21904536.981 6  89695426.69206     -2131.874 6        41.250    21904537.074 7  85958110.10407     -2043.187 7        47.750
G27        12.000    21057771.076 7 110659343.84007      2066.684 7        47.500    21057770.687 8        48.250    21057774.541 8  86228061.71608      1610.402 8        48.250    21057774.810 7  86228065.72307      1610.507 7        45.500    21057772.543 8  82635229.62908      1543.303 8        49.250
R09         8.000    23414274.662 6 125030935.86006      3967.060 6        40.500    23414280.488 6  97246296.00106      3085.428 6        36.500    23414261.802 5  93880061.66905      2978.542 5        34.000
R15        11.000    20869622.630 7 111520909.21507     -3426.173 7        46.500    20869625.492 7  86738507.45607     -2664.795 7        46.250
R16         4.000    20000224.391 7 106837618.91807       798.708 7        46.250    20000230.084 7  83095951.27407       621.177 7        46.000    20000215.233 7  80191341.16807       599.482 7        46.750
R18        22.000    20168728.892 8 107662045.89408      1925.678 8        49.000    20168733.260 7  83737166.34307      1497.800 7        45.000
S21         5.000    38585027.198 6 202765692.53406         5.068 6        40.250
S36        28.000    38464155.247 6 202130544.72606         0.630 6        41.500
> 2026 04 16 10 54 32.0000000  0 19
C12        21.000    22131053.335 8 115242206.10408      1324.161 8        48.250    22131052.039 8  89112576.47108      1023.902 8        52.500
C24        23.000    23391454.610 8 121805453.80808     -2133.429 8        48.000
C25         2.000    23759417.644 7 123721521.36707      1159.774 7        44.750
C26        30.000    26133363.297 7 136083259.55607     -3476.233 7        43.250
C34         7.000    23539402.334 7 122575842.86907      2393.093 7        42.750
E02        26.000    24339502.170 6 127904953.06606     -1926.704 6        38.000    24339508.180 6  95513447.95106     -1438.795 6        37.750    24339504.344 6  98005096.79506     -1476.228 6        38.000    24339506.007 6  96759271.88006     -1457.522 6        40.750
E27        18.000    27678103.696 6 145449423.52406      2775.589 6        37.500    27678101.911 5 108614816.80505      2072.593 5        34.250    27678105.466 6 111448261.75206      2126.732 6        41.250    27678104.746 6 110031533.27606      2099.680 6        41.250
E34        29.000    24165561.996 8 126990884.02108      1659.713 8        49.000    24165566.132 7  94830876.01807      1239.416 7        46.500    24165562.193 7  97304708.30107      1271.766 7        45.750    24165564.120 8  96067789.66308      1255.579 8        49.000
G07        34.000    25258214.935 6 132732810.68006      1466.713 6        41.750    25258214.533 5        35.750    25258216.312 5 103428162.37105      1142.891 5        35.750    25258216.156 6 103428173.35606      1142.971 6        40.000
G08        14.000    23459676.044 6 123281426.27806      3222.944 6        39.250    23459675.566 5        33.000    23459679.160 5  96063461.36105      2511.383 5        33.000    23459678.463 6  96063472.36606      2511.426 6        39.000    23459681.495 8  92060833.14908      2406.736 8        50.250
G16         1.000    20390069.784 8 107150531.58508      -583.823 8        49.250    20390069.114 6        40.000    20390066.730 6  83493919.71606      -454.927 6        40.000
G26        13.000    21905054.432 7 115111834.19507     -2737.166 7        45.250    21905054.008 6        41.500    21905058.139 6  89697549.28206     -2132.848 6        41.500    21905057.598 6  89697559.27106     -2132.712 6        41.000    21905057.594 7  85960153.82707     -2044.001 7        47.750
G27        12.000    21057377.806 7 110657277.80507      2065.643 7        47.500    21057377.417 8        48.250    21057381.361 8  86226451.81908      1609.588 8        48.250    21057381.262 7  86226455.82907      1609.712 7        45.500    21057379.514 8  82633686.80808      1542.567 8        49.000
R09         8.000    23413531.747 6 125026969.58206      3965.871 6        40.500    23413536.777 6  97243211.13806      3084.433 6        36.500    23413519.114 5  93877083.56205      2977.698 5        34.000
R15        11.000    20870263.423 7 111524336.21207     -3427.392 7        46.250    20870266.705 7  86741172.89007     -2665.729 7        46.250
R16         4.000    20000075.133 7 106836821.22707       797.040 7        46.250    20000080.767 7  83095330.84707       619.973 7        46.000    20000065.948 7  80190742.42507       598.341 7        46.500
R18        22.000    20168368.251 8 107660121.01908      1924.471 8        48.750    20168372.995 7  83735669.21807      1496.871 7        45.000
S21         5.000    38585026.460 6 202765687.89306         4.397 6        40.250
S36        28.000    38464155.157 6 202130544.53506        -0.094 6        41.250
> 2026 04 16 10 54 33.0000000  0 19
C12        21.000    22130799.030 8 115240882.40608      1323.782 8        48.250    22130797.885 8  89111552.89908      1023.666 8        52.500
C24        23.000    23391864.291 8 121807587.72908     -2133.835 8        48.000
C25         2.000    23759195.104 7 123720362.10507      1159.315 7        45.000
C26        30.000    26134030.669 7 136086736.05007     -3476.238 7        43.500
C34         7.000    23538943.049 7 122573450.11107      2392.948 7        42.750
E02        26.000    24339869.612 6 127906880.18606     -1927.149 6        38.000    24339875.037 6  95514887.00706     -1438.929 6        37.500    24339871.321 6  98006573.41906     -1476.673 6        38.000    24339872.725 6  96760729.71706     -1457.752 6        40.750
E27        18.000    27677575.780 6 145446648.33606      2775.452 6        37.250    27677574.045 5 108612744.41105      2072.570 5        34.250    27677577.341 6 111446135.30606      2126.610 6        41.250    27677576.634 6 110029433.85906      2099.575 6        41.500
E34        29.000    24165246.183 8 126989224.78708      1659.421 8        49.000    24165250.463 7  94829636.98707      1239.127 7        46.500    24165246.595 7  97303436.94907      1271.464 7        45.750    24165248.356 8  96066534.47108      1255.288 8        49.000
G07        34.000    25257935.360 7 132731344.47807      1466.260 7        42.000    25257934.963 5        35.500    25257937.296 5 103427019.87605      1142.546 5        35.500    25257937.185 6 103427030.87406      1142.479 6        40.000
G08        14.000    23459062.059 6 123278203.64006      3222.920 6        39.250    23459061.581 5        33.000    23459065.873 5  96060950.21505      2511.368 5        33.000    23459065.605 6  96060961.23306      2511.372 6        39.250    23459068.305 8  92058426.64308      2406.710 8        50.250
G16         1.000    20390180.461 8 107151116.02208      -584.396 8        49.500    20390179.791 6        40.000    20390177.948 6  83494375.12206      -455.373 6        40.000
G26        13.000    21905576.038 7 115114571.87007     -2737.618 7        45.500    21905575.614 6        41.500    21905579.043 6  89699682.53406     -2133.208 6        41.500    21905578.565 6  89699692.54106     -2133.194 6        41.000    21905578.676 7  85962198.19607     -2044.277 7        47.750
G27        12.000    21056985.278 7 110655212.58207      2065.380 7        47.500    21056984.889 8        48.250    21056988.341 8  86224842.55508      1609.391 8        48.250    21056988.520 7  86224846.56907      1609.317 7        45.500    21056986.615 8  82632144.60208      1542.284 8        49.250
R09         8.000    23412788.961 6 125023004.05606      3965.626 6        40.500    23412794.322 6  97240126.85506      3084.195 6        36.750    23412776.534 5  93874106.02805      2977.642 5        34.000
R15        11.000    20870904.483 7 111527764.20107     -3427.944 7        46.250    20870908.092 7  86743839.09907     -2666.207 7        46.250
R16         4.000    19999925.906 7 106836024.86507       796.237 7        46.250    19999931.768 7  83094711.45707       619.257 7        46.000    19999916.864 7  80190144.68807       597.651 7        46.750
R18        22.000    20168007.825 8 107658197.05808      1924.046 8        49.000    20168012.837 7  83734172.80707      1496.419 7        45.250
S21         5.000    38585024.765 6 202765683.70106         4.522 6        40.250
S36        28.000    38464157.545 6 202130544.78306         0.067 6        41.500
> 2026 04 16 10 54 34.0000000  0 19
C12        21.000    22130544.751 8 115239559.12608      1322.110 8        48.250    22130543.767 8  89110529.65608      1022.337 8        52.750
C24        23.000    23392274.147 8 121809722.17308     -2135.609 8        48.000
C25         2.000    23758972.574 7 123719203.47407      1157.372 7        45.000
C26        30.000    26134698.363 7 136090212.68407     -3477.708 7        43.500
C34         7.000    23538483.411 7 122571057.65007      2391.383 7        42.750
E02        26.000    24340235.440 6 127908807.73006     -1928.640 6        38.000    24340242.076 6  95516326.41406     -1440.218 6        37.500    24340237.953 6  98008050.36106     -1477.888 6        38.250    24340239.492 6  96762187.89306     -1459.017 6        40.750
E27        18.000    27677048.151 6 145443873.32306      2774.083 6        37.500    27677045.616 5 108610672.16205      2071.770 5        34.000    27677049.309 6 111444009.01006      2125.550 6        41.500    27677048.692 6 110027334.58306      2098.605 6        41.500
E34        29.000    24164930.326 8 126987566.01308      1657.584 8        49.000    24164934.864 7  94828398.29007      1237.844 7        46.500    24164931.090 7  97302165.93907      1270.037 7        46.000    24164932.638 8  96065279.61708      1253.931 8        49.250
G07        34.000    25257656.470 6 132729878.89706      1464.344 6        41.750    25257656.073 5        35.250    25257658.392 5 103425877.86305      1141.046 5        35.250    25257658.102 6 103425888.84806      1141.041 6        39.750
G08        14.000    23458449.093 6 123274981.26606      3221.313 6        39.250    23458448.611 5        33.250    23458452.639 5  96058439.27705      2510.106 5        33.250    23458451.937 6  96058450.28306      2510.104 6        39.250    23458454.996 8  92056020.32508      2405.508 8        50.250
G16         1.000    20390291.966 8 107151701.23008      -586.540 8        49.500    20390291.296 6        39.750    20390289.310 6  83494831.13006      -457.047 6        39.750
G26        13.000    21906096.817 7 115117310.07107     -2739.456 7        45.500    21906096.397 6        41.500    21906100.054 6  89701816.19706     -2134.641 6        41.500    21906099.594 6  89701826.20206     -2134.568 6        41.000    21906099.853 7  85964242.95007     -2045.622 7        47.750
G27        12.000    21056591.811 7 110653147.84207      2063.472 7        47.500    21056591.418 8        48.250    21056595.415 8  86223233.66808      1607.904 8        48.250    21056595.893 7  86223237.67607      1607.946 7        45.500    21056593.648 8  82630602.74908      1540.952 8        49.250
R09         8.000    23412046.090 6 125019038.97706      3964.009 6        40.750    23412051.487 6  97237042.88606      3083.023 6        37.000    23412034.021 5  93871128.84405      2976.503 5        34.250
R15        11.000    20871545.607 7 111531192.87507     -3429.956 7        46.000    20871549.582 7  86746505.83007     -2667.719 7        46.000
R16         4.000    19999776.987 7 106835229.51807       793.875 7        46.250    19999782.792 7  83094092.84807       617.468 7        46.000    19999767.977 7  80189547.70807       595.846 7        46.750
R18        22.000    20167647.573 8 107656273.70708      1922.092 8        49.250    20167652.648 7  83732676.85907      1494.998 7        45.000
S21         5.000    38585023.947 6 202765679.61206         3.185 6        40.250
S36        28.000    38464158.408 6 202130545.11306        -1.261 6        41.500
> 2026 04 16 10 54 35.0000000  0 19
C12        21.000    22130290.669 8 115238236.57808      1323.416 8        48.000    22130289.810 8  89109506.97908      1023.341 8        52.750
C24        23.000    23392684.195 8 121811857.48808     -2134.499 8        48.000
C25         2.000    23758750.303 7 123718045.81407      1158.372 7        45.000
C26        30.000    26135366.159 7 136093689.78607     -3476.177 7        43.250
C34         7.000    23538023.947 7 122568665.82307      2392.786 7        42.750
E02        26.000    24340603.379 6 127910736.03606     -1927.378 6        38.000    24340608.477 6  95517766.39006     -1439.081 6        37.750    24340605.203 6  98009527.89506     -1476.760 6        38.250    24340606.420 6  96763646.64806     -1457.912 6        41.000
E27        18.000    27676519.449 6 145441098.89006      2775.464 6        37.250    27676518.322 5 108608600.35305      2072.584 5        34.000    27676521.296 6 111441883.14806      2126.505 6        41.500    27676520.710 6 110025235.75006      2099.520 6        41.500
E34        29.000    24164614.991 8 126985908.02008      1658.813 8        49.000    24164619.293 7  94827160.17507      1238.833 7        46.500    24164615.398 7  97300895.53107      1271.041 7        46.000    24164617.191 8  96064025.35408      1254.953 8        49.250
G07        34.000    25257378.250 6 132728414.24306      1465.354 6        41.500    25257377.853 5        35.250    25257379.672 5 103424736.57605      1141.833 5        35.250    25257378.970 6 103424747.55406      1142.031 6        39.750
G08        14.000    23457835.001 6 123271759.45306      3222.918 6        39.500    23457834.519 5        33.250    23457839.517 5  96055928.77505      2511.363 5        33.250    23457839.589 6  96055939.78606      2511.342 6        39.250    23457842.034 8  92053614.43008      2406.671 8        50.250
G16         1.000    20390403.506 8 107152287.54308      -585.641 8        49.500    20390402.836 6        40.000    20390400.885 6  83495287.99706      -456.349 6        40.000
G26        13.000    21906617.890 7 115120049.13407     -2738.318 7        45.500    21906617.466 6        41.500    21906621.235 6  89703950.53106     -2133.755 6        41.500    21906621.088 6  89703960.53306     -2133.626 6        40.750    21906620.842 7  85966288.35507     -2044.771 7        47.750
G27        12.000    21056199.582 7 110651083.91307      2064.854 7        47.500    21056199.189 8        48.000    21056202.636 8  86221625.40908      1608.977 8        48.000    21056202.766 7  86221629.42807      1608.895 7        45.500    21056200.959 8  82629061.50408      1541.920 8        49.250
R09         8.000    23411304.051 6 125015074.69506      3965.173 6        40.500    23411309.520 6  97233959.55406      3084.064 6        37.000    23411291.602 5  93868152.19905      2977.558 5        34.250
R15        11.000    20872186.605 7 111534622.61407     -3428.992 7        45.500    20872191.421 7  86749173.39807     -2666.937 7        46.000
R16         4.000    19999628.565 7 106834435.51207       794.621 7        46.250    19999634.061 7  83093475.28807       618.020 7        46.000    19999619.390 7  80188951.73507       596.450 7        46.750
R18        22.000    20167287.486 8 107654351.29708      1923.254 8        49.250    20167292.454 7  83731181.65107      1495.938 7        45.250
S21         5.000    38585023.169 6 202765675.96406         4.646 6        40.250
S36        28.000    38464159.092 6 202130545.85806         0.203 6        41.500
> 2026 04 16 10 54 36.0000000  0 19
C12        21.000    22130036.631 8 115236913.93108      1322.884 8        48.000    22130035.862 8  89108484.23208      1022.892 8        52.750
C24        23.000    23393094.256 7 121813992.82007     -2135.142 7        47.750
C25         2.000    23758528.023 7 123716888.28107      1157.534 7        44.750
C26        30.000    26136033.960 7 136097166.50707     -3476.355 7        43.000
C34         7.000    23537564.559 7 122566273.79107      2392.381 7        42.750
E02        26.000    24340969.806 6 127912664.26806     -1927.917 6        38.250    24340975.789 6  95519206.32506     -1439.738 6        37.750    24340971.630 6  98011005.40406     -1477.454 6        38.250    24340973.312 6  96765105.37206     -1458.627 6        41.000
E27        18.000    27675992.424 6 145438324.15106      2775.051 6        37.250    27675989.423 5 108606528.32105      2072.135 5        34.500    27675993.103 6 111439757.03306      2126.376 6        41.500    27675992.611 6 110023136.67206      2099.290 6        41.500
E34        29.000    24164299.577 8 126984249.95908      1658.307 8        48.750    24164303.829 7  94825922.02007      1238.407 7        46.500    24164299.983 7  97299625.06807      1270.617 7        46.000    24164301.674 8  96062771.04708      1254.514 8        49.250
G07        34.000    25257099.578 6 132726949.65906      1464.771 6        41.250    25257099.181 5        35.000    25257100.960 5 103423595.34005      1141.382 5        35.000    25257100.607 6 103423606.34106      1141.368 6        39.750
G08        14.000    23457222.509 6 123268537.37006      3222.399 6        39.500    23457222.031 5        33.500    23457226.337 5  96053418.06505      2510.960 5        33.500    23457225.925 6  96053429.08106      2510.991 6        39.250    23457228.796 8  92051208.33708      2406.327 8        50.250
G16         1.000    20390515.386 8 107152874.10908      -586.518 8        49.250    20390514.716 6        39.750    20390512.493 6  83495745.06206      -457.026 6        39.750
G26        13.000    21907138.995 7 115122788.21007     -2738.917 7        45.500    21907138.575 6        41.500    21907142.407 6  89706084.87506     -2134.219 6        41.500    21907141.665 6  89706094.88406     -2134.304 6        40.750    21907142.027 7  85968333.77507     -2045.323 7        47.750
G27        12.000    21055806.683 7 110649019.95907      2064.103 7        47.250    21055806.290 8        48.000    21055809.858 8  86220017.13408      1608.392 8        48.000    21055810.037 7  86220021.14207      1608.476 7        45.250    21055808.181 8  82627520.24008      1541.403 8        49.500
R09         8.000    23410561.874 6 125011110.31706      3964.550 6        40.500    23410567.615 6  97230876.16906      3083.432 6        37.000    23410549.134 5  93865175.55405      2976.761 5        34.000
R15        11.000    20872827.898 7 111538052.54507     -3429.902 7        45.250    20872833.358 7  86751841.10807     -2667.688 7        46.000
R16         4.000    19999480.130 7 106833641.98107       793.455 7        46.250    19999485.594 7  83092858.09607       617.129 7        46.000    19999470.847 7  80188356.12107       595.535 7        46.750
R18        22.000    20166927.355 8 107652428.95708      1922.436 8        49.250    20166932.556 7  83729686.50307      1495.226 7        45.000
S21         5.000    38585024.095 6 202765671.87506         4.384 6        40.250
S36        28.000    38464159.374 6 202130546.16506         0.073 6        41.500
> 2026 04 16 10 54 37.0000000  0 19
C12        21.000    22129782.505 8 115235591.38508      1322.368 8        48.000    22129781.932 8  89107461.55108      1022.483 8        52.750
C24        23.000    23393504.429 8 121816128.38308     -2135.856 8        48.000
C25         2.000    23758305.739 7 123715731.05807      1156.872 7        45.000
C26        30.000    26136701.654 7 136100643.03207     -3476.543 7        43.250
C34         7.000    23537105.123 7 122563881.75407      2391.800 7        42.750
E02        26.000    24341337.016 6 127914592.64806     -1928.677 6        38.250    24341342.730 6  95520646.32606     -1440.219 6        37.750    24341338.916 6  98012482.95206     -1477.757 6        38.250    24341340.360 6  96766564.14606     -1458.975 6        41.000
E27        18.000    27675464.177 6 145435549.27106      2774.834 6        37.250    27675462.022 5 108604456.17905      2072.040 5        34.250    27675465.228 6 111437630.85206      2126.144 6        41.500    27675464.651 6 110021037.51006      2099.146 6        41.500
E34        29.000    24163983.809 8 126982592.04108      1657.741 8        49.000    24163988.352 7  94824683.96707      1237.864 7        46.500    24163984.555 7  97298354.71307      1270.228 7        46.000    24163986.187 8  96061516.84208      1254.056 8        49.250
G07        34.000    25256820.102 6 132725485.37106      1463.971 6        41.500    25256819.700 5        35.000    25256822.320 5 103422454.33705      1140.755 5        35.000    25256821.855 6 103422465.33506      1140.684 6        39.750
G08        14.000    23456608.555 6 123265315.22906      3222.113 6        39.750    23456608.077 5        33.500    23456613.139 5  96050907.30905      2510.741 5        33.500    23456612.374 6  96050918.31106      2510.703 6        39.500    23456615.594 8  92048802.18308      2406.083 8        50.250
G16         1.000    20390626.926 8 107153461.12808      -587.381 8        49.500    20390626.256 6        39.750    20390624.189 6  83496202.48106      -457.703 6        39.750
G26        13.000    21907659.881 7 115125527.49807     -2739.549 7        45.500    21907659.457 6        41.500    21907663.638 6  89708219.38806     -2134.712 6        41.500    21907663.517 6  89708229.40406     -2134.769 6        40.750    21907663.401 7  85970379.34607     -2045.741 7        47.750
G27        12.000    21055413.726 7 110646956.14707      2063.627 7        47.500    21055413.329 8        48.000    21055417.106 8  86218408.96908      1608.023 8        48.000    21055417.563 7  86218412.98207      1607.985 7        45.500    21055415.537 8  82625979.08008      1540.977 8        49.500
R09         8.000    23409819.084 6 125007146.04806      3964.157 6        40.500    23409825.366 6  97227792.82606      3083.353 6        37.000    23409806.719 5  93862198.97405      2976.380 5        34.000
R15        11.000    20873469.540 7 111541482.83907     -3430.703 7        45.000    20873475.166 7  86754509.11307     -2668.327 7        46.000
R16         4.000    19999331.797 7 106832849.12907       792.315 7        46.500    19999337.382 7  83092241.44007       616.289 7        46.000    19999322.465 7  80187761.01507       594.675 7        46.750
R18        22.000    20166567.412 8 107650506.87308      1921.795 8        49.500    20166572.358 7  83728191.55407      1494.739 7        45.000
S21         5.000    38585023.231 6 202765667.59006         4.358 6        40.250
S36        28.000    38464158.784 6 202130546.31306        -0.203 6        41.500
> 2026 04 16 10 54 38.0000000  0 19
C12        21.000    22129528.467 7 115234269.32307      1322.191 7        47.750    22129528.105 8  89106439.25408      1022.301 8        52.750
C24        23.000    23393914.620 7 121818264.54207     -2136.183 7        47.750
C25         2.000    23758083.540 7 123714574.53307      1156.505 7        44.750
C26        30.000    26137369.285 7 136104119.75807     -3476.522 7        42.750
C34         7.000    23536646.003 7 122561490.06707      2391.822 7        42.750
E02        26.000    24341703.644 6 127916521.49306     -1928.734 6        38.000    24341709.497 6  95522086.71106     -1440.432 6        37.750    24341706.068 6  98013960.91806     -1477.922 6        38.000    24341707.512 6  96768023.32006     -1459.219 6        41.000
E27        18.000    27674936.186 6 145432774.69206      2774.741 6        37.000    27674933.740 5 108602384.25305      2072.000 5        34.250    27674937.022 6 111435504.87306      2126.010 6        41.250    27674936.646 6 110018938.56206      2099.016 6        41.250
E34        29.000    24163668.658 8 126980934.63908      1657.400 8        48.750    24163672.946 7  94823446.29907      1237.618 7        46.250    24163669.194 7  97297084.75707      1269.982 7        46.000    24163670.835 8  96060263.03108      1253.806 8        49.000
G07        34.000    25256542.070 6 132724021.73006      1463.657 6        41.000    25256541.668 5        34.750    25256543.787 5 103421313.83705      1140.514 5        34.750    25256544.001 6 103421324.84106      1140.504 6        39.500
G08        14.000    23455996.225 6 123262093.38006      3221.884 6        39.500    23455995.752 5        33.500    23456000.026 5  96048396.78005      2510.559 5        33.500    23456000.325 6  96048407.78606      2510.489 6        39.500    23456002.409 8  92046396.26608      2405.998 8        50.000
G16         1.000    20390738.672 8 107154048.98408      -587.944 8        49.250    20390738.002 6        40.000    20390736.047 6  83496660.55106      -458.136 6        40.000
G26        13.000    21908181.751 7 115128267.38907     -2739.834 7        45.250    21908181.331 6        41.500    21908184.984 6  89710354.36706     -2134.932 6        41.500    21908184.479 6  89710364.37906     -2135.001 6        40.750    21908184.537 7  85972425.37507     -2046.083 7        47.500
G27        12.000    21055021.082 7 110644892.89207      2063.320 7        47.000    21055020.685 8        48.000    21055024.462 8  86216801.23808      1607.783 8        48.000    21055024.476 7  86216805.25007      1607.780 7        45.250    21055022.987 8  82624438.33808      1540.803 8        49.250
R09         8.000    23409076.857 6 125003182.28106      3963.844 6        40.250    23409082.844 6  97224709.90606      3083.039 6        36.500    23409064.309 5  93859222.73805      2976.496 5        33.750
R15        11.000    20874111.232 7 111544913.87307     -3431.199 7        44.500    20874117.085 7  86757177.68107     -2668.700 7        45.500
R16         4.000    19999183.706 7 106832057.37107       791.470 7        46.250    19999189.157 7  83091625.62807       615.571 7        45.750    19999174.271 7  80187166.73607       594.079 7        46.750
R18        22.000    20166207.509 8 107648585.46408      1921.425 8        49.250    20166212.245 7  83726697.12507      1494.391 7        44.750
S21         5.000    38585022.275 6 202765663.47206         4.409 6        40.000
S36        28.000    38464156.986 6 202130546.61206         0.005 6        41.000
> 2026 04 16 10 54 39.0000000  0 19
C12        21.000    22129274.573 7 115232947.54707      1322.002 7        47.750    22129274.363 8  89105417.16708      1022.297 8        52.750
C24        23.000    23394325.052 7 121820401.10307     -2136.411 7        47.750
C25         2.000    23757861.456 7 123713418.51807      1156.187 7        44.750
C26        30.000    26138036.925 7 136107596.50507     -3476.375 7        42.750
C34         7.000    23536186.933 7 122559098.56007      2391.741 7        42.750
E02        26.000    24342071.211 6 127918450.66406     -1928.964 6        38.000    24342076.948 6  95523527.31306     -1440.461 6        37.500    24342073.125 6  98015439.09506     -1477.940 6        38.000    24342074.507 6  96769482.71006     -1459.193 6        40.750
E27        18.000    27674408.539 6 145430000.19706      2774.872 6        37.000    27674405.887 5 108600312.36405      2072.374 5        34.250    27674409.442 6 111433378.96506      2126.187 6        41.000    27674408.592 6 110016839.67106      2099.212 6        41.250
E34        29.000    24163353.328 8 126979277.55708      1657.307 8        48.750    24163357.509 7  94822208.86207      1237.622 7        46.250    24163353.860 7  97295815.05407      1269.852 7        46.000    24163355.487 8  96059009.46008      1253.768 8        49.000
G07        34.000    25256263.488 6 132722558.58306      1463.200 6        41.000    25256263.086 5        34.750    25256265.343 5 103420173.72105      1140.164 5        34.750    25256264.869 6 103420184.71006      1140.326 6        39.500
G08        14.000    23455384.060 6 123258871.63506      3221.914 6        39.750    23455383.587 5        33.500    23455386.926 5  96045886.33405      2510.581 5        33.500    23455386.810 6  96045897.33406      2510.694 6        39.500    23455389.206 8  92043990.42108      2406.080 8        50.000
G16         1.000    20390850.686 8 107154637.48208      -588.453 8        49.000    20390850.016 6        40.000    20390848.034 6  83497119.12106      -458.535 6        40.000
G26        13.000    21908703.124 7 115131007.68307     -2740.207 7        45.250    21908702.704 6        41.500    21908706.411 6  89712489.66106     -2135.225 6        41.500    21908705.678 6  89712499.66906     -2135.219 6        40.750    21908705.924 7  85974471.68507     -2046.177 7        47.500
G27        12.000    21054628.504 7 110642829.99307      2063.142 7        47.000    21054628.107 7        47.750    21054631.885 7  86215193.78307      1607.646 7        47.750    21054632.270 7  86215197.80007      1607.673 7        45.250    21054630.427 8  82622897.86708      1540.688 8        49.500
R09         8.000    23408334.232 6 124999218.84906      3963.714 6        40.250    23408340.814 6  97221627.21906      3083.326 6        36.750    23408322.051 5  93856246.79805      2976.243 5        33.750
R15        11.000    20874753.276 7 111548345.46107     -3431.449 7        44.500    20874759.228 7  86759846.68707     -2668.957 7        45.500
R16         4.000    19999035.771 7 106831266.51607       790.839 7        46.000    19999040.918 7  83091010.52207       615.060 7        45.750    19999026.260 7  80186573.12407       593.592 7        46.750
R18        22.000    20165847.718 8 107646664.51308      1921.154 8        49.500    20165852.489 7  83725203.05107      1494.151 7        44.750
S21         5.000    38585020.763 6 202765659.36006         4.503 6        40.000
S36        28.000    38464158.323 6 202130546.88906         0.072 6        41.250
> 2026 04 16 10 54 40.0000000  0 19
C12        21.000    22129020.728 7 115231626.46007      1320.518 7        47.750    22129020.782 8  89104395.62008      1021.131 8        52.750
C24        23.000    23394735.748 8 121822538.47408     -2137.989 8        48.000
C25         2.000    23757639.557 7 123712263.42507      1154.331 7        45.000
C26        30.000    26138704.382 7 136111073.64707     -3477.615 7        42.750
C34         7.000    23535727.975 7 122556707.63707      2390.293 7        43.000
E02        26.000    24342438.242 6 127920380.54606     -1930.534 6        38.500    24342444.006 6  95524968.45906     -1441.635 6        37.750    24342439.906 6  98016917.84706     -1479.194 6        38.250    24342441.681 6  96770942.66106     -1460.400 6        41.000
E27        18.000    27673879.296 6 145427226.20906      2773.423 6        37.000    27673877.851 5 108598240.90905      2070.784 5        34.000    27673881.469 6 111431253.42406      2125.291 6        41.000    27673880.793 6 110014741.15906      2098.159 6        41.250
E34        29.000    24163037.966 8 126977621.21208      1655.787 8        49.250    24163042.398 7  94820971.98407      1236.460 7        46.500    24163038.704 7  97294545.90307      1268.785 7        46.000    24163040.301 8  96057756.44608      1252.621 8        49.250
G07        34.000    25255984.897 6 132721096.29306      1461.587 6        41.250    25255984.491 5        34.750    25255987.070 5 103419034.27305      1138.896 5        34.750    25255986.327 6 103419045.27606      1138.920 6        39.500
G08        14.000    23454770.678 6 123255650.41206      3220.832 6        40.000    23454770.205 5        33.500    23454773.916 5  96043376.29405      2509.740 5        33.500    23454773.884 6  96043387.31206      2509.653 6        39.750    23454776.147 8  92041584.97308      2405.213 8        50.000
G16         1.000    20390962.883 8 107155227.02608      -590.280 8        49.500    20390962.208 6        40.000    20390960.218 6  83497578.50606      -459.955 6        40.000
G26        13.000    21909224.703 7 115133748.78607     -2741.817 7        45.500    21909224.288 6        41.500    21909228.008 6  89714625.58506     -2136.481 6        41.500    21909228.285 6  89714635.58906     -2136.413 6        40.750    21909227.802 7  85976518.61907     -2047.457 7        47.500
G27        12.000    21054236.061 7 110640767.85807      2061.569 7        47.000    21054235.664 7        47.750    21054239.451 7  86213586.92507      1606.416 7        47.750    21054239.263 7  86213590.93807      1606.415 7        45.250    21054237.962 8  82621357.95608      1539.495 8        49.500
R09         8.000    23407592.247 6 124995256.10306      3962.249 6        40.500    23407598.337 6  97218545.12406      3081.698 6        36.750    23407579.950 5  93853271.36705      2974.951 5        34.000
R15        11.000    20875395.853 7 111551778.03807     -3433.259 7        44.750    20875401.536 7  86762516.45907     -2670.282 7        45.500
R16         4.000    19998887.895 7 106830476.96507       788.740 7        46.250    19998892.755 7  83090396.42807       613.476 7        45.750    19998878.473 7  80185980.49807       592.009 7        46.750
R18        22.000    20165488.034 8 107644744.44208      1919.380 8        49.750    20165492.608 7  83723709.66107      1492.835 7        44.750
S21         5.000    38585019.578 6 202765655.60806         3.281 6        40.250
S36        28.000    38464158.945 6 202130547.57106        -1.170 6        41.500
> 2026 04 16 10 54 41.0000000  0 19
C12        21.000    22128766.919 7 115230305.15307      1321.617 7        47.750    22128767.102 8  89103373.90208      1021.980 8        53.000
C24        23.000    23395146.270 8 121824675.75608     -2137.059 8        48.250
C25         2.000    23757417.648 7 123711108.33707      1155.257 7        45.000
C26        30.000    26139371.892 7 136114550.30407     -3476.269 7        42.750
C34         7.000    23535268.895 7 122554316.38807      2391.641 7        43.000
E02        26.000    24342805.510 6 127922310.25106     -1929.391 6        38.750    24342810.608 6  95526409.46906     -1440.714 6        37.750    24342807.634 6  98018396.44606     -1478.271 6        38.250    24342809.016 6  96772402.46106     -1459.449 6        41.000
E27        18.000    27673351.671 6 145424451.77806      2774.799 6        37.250    27673349.690 5 108596169.08705      2072.312 5        34.500    27673353.290 6 111429127.58006      2126.120 6        41.000    27673352.968 6 110012642.32806      2099.149 6        41.250
E34        29.000    24162722.829 8 126975964.69308      1656.779 8        49.250    24162727.081 7  94819734.97607      1237.180 7        46.500    24162723.406 7  97293276.62307      1269.478 7        46.000    24162725.056 8  96056503.30308      1253.326 8        49.250
G07        34.000    25255706.368 6 132719633.99006      1462.522 6        41.250    25255705.962 5        34.750    25255708.805 5 103417894.81505      1139.628 5        34.750    25255707.705 6 103417905.81206      1139.700 6        39.500
G08        14.000    23454157.051 6 123252428.83506      3221.886 6        40.000    23454156.573 5        33.500    23454160.843 5  96040865.97505      2510.555 5        33.500    23454160.758 6  96040876.97206      2510.719 6        39.750    23454163.119 8  92039179.24008      2405.975 8        50.250
G16         1.000    20391075.322 8 107155816.70708      -589.610 8        49.500    20391074.652 6        40.000    20391072.438 6  83498037.99706      -459.438 6        40.000
G26        13.000    21909746.349 7 115136489.78107     -2740.815 7        45.500    21909745.934 6        41.750    21909749.587 6  89716761.42406     -2135.697 6        41.750    21909749.117 6  89716771.43006     -2135.734 6        40.750    21909749.435 7  85978565.46107     -2046.651 7        47.500
G27        12.000    21053843.390 7 110638705.56107      2062.542 7        46.750    21053842.997 7        47.750    21053846.990 7  86211979.94107      1607.174 7        47.750    21053847.048 7  86211983.95507      1607.205 7        45.250    21053845.555 8  82619817.93508      1540.178 8        49.750
R09         8.000    23406850.414 6 124991293.19806      3963.149 6        40.750    23406856.383 6  97215462.85006      3082.346 6        36.750    23406837.996 5  93850295.80305      2975.438 5        34.000
R15        11.000    20876038.452 7 111555210.67007     -3432.545 7        45.000    20876043.849 7  86765186.27607     -2669.702 7        45.500
R16         4.000    19998740.260 7 106829687.77207       789.236 7        46.500    19998745.228 7  83089782.61107       613.845 7        45.500    19998730.771 7  80185388.13807       592.362 7        47.000
R18        22.000    20165128.444 8 107642824.32608      1920.323 8        50.000    20165132.956 7  83722216.22707      1493.679 7        44.750
S21         5.000    38585020.298 6 202765651.31306         4.573 6        40.250
S36        28.000    38464159.647 6 202130547.73806         0.255 6        41.500
> 2026 04 16 10 54 42.0000000  0 19
C12        21.000    22128513.230 7 115228984.32907      1321.059 7        47.750    22128513.507 8  89102352.55908      1021.501 8        53.000
C24        23.000    23395556.832 8 121826813.64108     -2137.705 8        48.250
C25         2.000    23757196.021 7 123709953.94707      1154.548 7        45.000
C26        30.000    26140039.403 7 136118027.15607     -3476.606 7        42.750
C34         7.000    23534809.709 7 122551925.51207      2391.246 7        43.250
E02        26.000    24343173.497 6 127924240.45006     -1929.917 6        38.750    24343178.363 6  95527850.83806     -1441.150 6        37.750    24343175.018 6  98019875.43306     -1478.846 6        38.250    24343176.234 6  96773862.64706     -1460.055 6        41.000
E27        18.000    27672823.733 6 145421677.64406      2774.330 6        37.250    27672822.258 5 108594097.49305      2071.725 5        34.500    27672825.146 6 111427001.93206      2125.869 6        41.000    27672824.945 6 110010543.71006      2098.803 6        41.250
E34        29.000    24162407.548 8 126974308.68408      1656.223 8        49.250    24162412.069 7  94818498.35007      1236.721 7        46.500    24162408.228 7  97292007.73307      1269.086 7        46.000    24162409.954 8  96055250.54608      1252.887 8        49.250
G07        34.000    25255428.551 6 132718172.34106      1461.723 6        41.250    25255428.149 5        34.750    25255430.666 5 103416755.86605      1139.002 5        34.750    25255429.664 6 103416766.85206      1139.202 6        39.500
G08        14.000    23453544.345 6 123249207.52806      3221.668 6        40.250    23453543.872 5        33.750    23453547.828 5  96038355.86805      2510.389 5        33.750    23453548.195 6  96038366.87306      2510.375 6        39.750    23453550.068 8  92036773.73008      2405.795 8        50.000
G16         1.000    20391187.484 8 107156407.23108      -590.420 8        49.500    20391186.814 6        40.000    20391184.815 6  83498498.14606      -460.066 6        40.000
G26        13.000    21910268.273 7 115139231.36907     -2741.308 7        45.500    21910267.858 6        41.750    21910271.278 6  89718897.72606     -2136.084 6        41.750    21910270.316 6  89718907.72906     -2136.102 6        40.500    21910270.983 7  85980612.75407     -2047.141 7        47.500
G27        12.000    21053451.010 7 110636643.82007      2061.961 7        46.750    21053450.617 7        47.750    21053454.628 7  86210373.39007      1606.720 7        47.750    21053454.780 7  86210377.40307      1606.765 7        45.250    21053453.331 8  82618278.32408      1539.701 8        49.750
R09         8.000    23406108.240 6 124987330.79406      3962.586 6        40.500    23406114.147 6  97212380.98706      3081.878 6        36.500    23406095.836 5  93847320.56105      2975.773 5        34.000
R15        11.000    20876680.966 7 111558644.03507     -3433.247 7        45.000    20876686.345 7  86767856.66207     -2670.272 7        45.750
R16         4.000    19998592.611 7 106828899.63607       788.106 7        46.500    19998597.606 7  83089169.61907       613.048 7        45.500    19998583.234 7  80184796.57307       591.540 7        47.000
R18        22.000    20164768.894 8 107640904.87008      1919.607 8        50.000    20164773.191 7  83720723.32207      1493.078 7        44.500
S21         5.000    38585018.541 6 202765647.15006         4.449 6        40.250
S36        28.000    38464159.759 6 202130548.10306        -0.114 6        41.750
> 2026 04 16 10 54 43.0000000  0 19
C12        21.000    22128259.644 7 115227663.74907      1319.845 7        47.500    22128259.904 8  89101331.40608      1020.575 8        53.000
C24        23.000    23395967.519 8 121828951.89108     -2139.070 8        48.250
C25         2.000    23756974.380 7 123708800.02807      1152.953 7        45.250
C26        30.000    26140706.926 7 136121503.96807     -3477.398 7        42.750
C34         7.000    23534350.661 7 122549534.76707      2389.994 7        43.250
E02        26.000    24343540.305 6 127926170.89306     -1931.139 6        38.750    24343545.912 6  95529292.44206     -1442.157 6        37.750    24343542.076 6  98021354.61006     -1479.632 6        38.250    24343543.618 6  96775323.03106     -1460.906 6        41.000
E27        18.000    27672296.221 6 145418903.55006      2773.315 6        37.500    27672294.186 5 108592025.91905      2071.117 5        34.250    27672297.218 6 111424876.32506      2125.124 6        41.000    27672297.070 6 110008445.12106      2098.136 6        41.250
E34        29.000    24162092.549 8 126972652.96208      1654.926 8        49.250    24162096.940 7  94817261.93107      1235.882 7        46.500    24162093.345 7  97290739.06707      1268.094 7        46.000    24162094.879 8  96053998.00308      1251.978 8        49.250
G07        34.000    25255150.715 6 132716711.12306      1460.432 6        41.250    25255150.313 5        34.750    25255152.602 5 103415617.25305      1137.997 5        34.750    25255152.848 6 103415628.23806      1138.053 6        39.500
G08        14.000    23452931.410 6 123245986.31506      3220.502 6        40.250    23452930.941 5        34.000    23452934.827 5  96035845.83505      2509.477 5        34.000    23452934.947 6  96035856.83906      2509.642 6        40.000    23452936.955 8  92034368.28508      2404.979 8        50.000
G16         1.000    20391299.811 8 107156998.35108      -592.037 8        49.750    20391299.141 6        40.000    20391297.298 6  83498958.75806      -461.327 6        40.000
G26        13.000    21910789.691 7 115141973.32907     -2742.812 7        45.500    21910789.280 7        42.000    21910793.044 7  89721034.31907     -2137.253 7        42.000    21910793.161 6  89721044.31906     -2137.276 6        40.500    21910792.879 7  85982660.31807     -2048.210 7        47.500
G27        12.000    21053058.844 7 110634582.38707      2060.640 7        46.750    21053058.451 7        47.750    21053062.328 7  86208767.07907      1605.695 7        47.750    21053062.560 7  86208771.09707      1605.701 7        45.250    21053060.973 8  82616738.94408      1538.780 8        49.750
R09         8.000    23405366.264 6 124983368.62806      3961.507 6        40.500    23405372.010 6  97209299.31106      3080.987 6        37.000    23405353.949 5  93844345.58605      2974.246 5        34.250
R15        11.000    20877323.788 7 111562077.90207     -3434.775 7        45.000    20877329.042 7  86770527.44007     -2671.462 7        45.500
R16         4.000    19998444.896 7 106828112.35107       786.252 7        46.500    19998450.078 7  83088557.28507       611.481 7        45.500    19998435.925 7  80184205.63807       590.153 7        47.000
R18        22.000    20164409.385 8 107638985.82608      1918.199 8        50.000    20164413.682 7  83719230.72507      1491.993 7        44.500
S21         5.000    38585018.295 6 202765642.94306         3.653 6        40.500
S36        28.000    38464158.833 6 202130548.44806        -1.008 6        41.500
> 2026 04 16 10 54 44.0000000  0 19
C12        21.000    22128006.014 7 115226343.30707      1319.955 7        47.500    22128006.390 8  89100310.35608      1020.639 8        53.000
C24        23.000    23396378.336 8 121831090.38308     -2139.061 8        48.500
C25         2.000    23756752.861 7 123707646.46107      1152.895 7        45.000
C26        30.000    26141374.620 7 136124980.63407     -3477.040 7        42.750
C34         7.000    23533891.600 7 122547144.03907      2390.207 7        43.250
E02        26.000    24343907.277 6 127928101.51806     -1930.966 6        39.000    24343913.444 6  95530734.12806     -1442.138 6        37.500    24343909.594 6  98022833.92006     -1479.619 6        38.250    24343910.967 6  96776783.53006     -1460.878 6        41.000
E27        18.000    27671767.787 6 145416129.35906      2773.779 6        37.000    27671766.069 5 108589954.29205      2071.600 5        34.250    27671769.633 6 111422750.66106      2125.376 6        41.000    27671769.168 6 110006346.47206      2098.464 6        41.250
E34        29.000    24161777.568 8 126970997.40908      1655.016 8        49.250    24161781.905 7  94816025.64407      1235.877 7        46.500    24161778.297 7  97289470.52807      1268.198 7        46.000    24161779.862 8  96052745.58908      1252.036 8        49.250
G07        34.000    25254872.961 6 132715250.22006      1460.305 6        41.250    25254872.559 5        34.750    25254874.602 5 103414478.88605      1137.897 5        34.750    25254873.756 6 103414489.87406      1138.009 6        39.500
G08        14.000    23452318.203 6 123242765.07706      3220.552 6        40.000    23452317.734 5        34.000    23452321.812 5  96033335.78105      2509.525 5        34.000    23452322.058 6  96033346.78306      2509.668 6        39.750    23452323.985 8  92031962.80608      2405.139 8        50.000
G16         1.000    20391412.273 8 107157589.96008      -592.338 8        49.750    20391411.603 6        40.250    20391409.880 6  83499419.75306      -461.560 6        40.250
G26        13.000    21911311.779 7 115144715.53107     -2742.788 7        45.500    21911311.364 7        42.000    21911314.865 7  89723171.10007     -2137.236 7        42.000    21911314.293 6  89723181.11206     -2137.363 6        40.750    21911314.677 7  85984708.06607     -2048.178 7        47.500
G27        12.000    21052666.437 7 110632521.15707      2060.703 7        46.750    21052666.044 7        47.750    21052670.068 7  86207160.92607      1605.738 7        47.750    21052669.992 7  86207164.94107      1605.689 7        45.250    21052668.785 8  82615199.70808      1538.813 8        49.750
R09         8.000    23404624.355 6 124979406.65806      3961.449 6        40.500    23404630.946 6  97206217.78306      3081.099 6        37.000    23404611.968 5  93841370.70305      2974.522 5        34.000
R15        11.000    20877966.723 7 111565512.14107     -3434.966 7        45.000    20877971.798 7  86773198.51107     -2671.605 7        45.500
R16         4.000    19998297.547 7 106827325.79407       785.734 7        46.250    19998302.917 7  83087945.52107       611.126 7        45.250    19998288.706 7  80183615.25907       589.762 7        47.000
R18        22.000    20164049.978 8 107637067.09408      1918.077 8        50.000    20164053.900 7  83717738.38207      1491.785 7        44.250
S21         5.000    38585016.242 6 202765638.57506         3.982 6        40.250
S36        28.000    38464156.298 6 202130548.64806        -0.625 6        41.250
> 2026 04 16 10 54 45.0000000  0 19
C12        21.000    22127752.393 7 115225022.93307      1320.625 7        47.500    22127752.813 8  89099289.36608      1021.096 8        53.000
C24        23.000    23396789.135 8 121833229.07908     -2138.542 8        48.500
C25         2.000    23756531.363 7 123706493.19807      1153.309 7        44.750
C26        30.000    26142042.225 7 136128457.09007     -3476.121 7        42.750
C34         7.000    23533432.498 7 122544753.28007      2391.010 7        43.250
E02        26.000    24344275.024 6 127930032.24206     -1930.578 6        38.750    24344280.944 6  95532175.88606     -1441.552 6        37.750    24344276.526 6  98024313.29906     -1479.381 6        38.250    24344278.342 6  96778244.10006     -1460.424 6        41.000
E27        18.000    27671240.690 6 145413355.06106      2774.618 6        37.000    27671238.293 5 108587882.60205      2071.479 5        34.250    27671241.660 6 111420624.89906      2126.035 6        41.000    27671241.177 6 110004247.74106      2098.941 6        41.250
E34        29.000    24161462.471 8 126969341.97508      1655.604 8        49.500    24161466.817 7  94814789.44807      1236.300 7        46.500    24161463.284 7  97288202.08207      1268.594 7        46.000    24161464.845 8  96051493.26708      1252.440 8        49.250
G07        34.000    25254594.884 6 132713789.58506      1460.736 6        41.250    25254594.478 5        34.500    25254596.650 5 103413340.72905      1138.236 5        34.500    25254597.213 6 103413351.72406      1138.214 6        39.500
G08        14.000    23451705.247 6 123239543.70506      3221.627 6        40.250    23451704.778 5        34.000    23451708.770 5  96030825.62605      2510.350 5        34.000    23451709.432 6  96030836.63106      2510.371 6        39.750    23451710.912 8  92029557.25208      2405.697 8        50.000
G16         1.000    20391525.221 8 107158181.99608      -592.041 8        49.750    20391524.551 6        40.250    20391522.552 6  83499881.07806      -461.334 6        40.250
G26        13.000    21911833.609 7 115147457.92807     -2742.252 7        45.500    21911833.194 7        42.000    21911836.726 7  89725308.03107     -2136.821 7        42.000    21911836.122 6  89725318.03106     -2136.750 6        40.500    21911836.538 7  85986755.96107     -2047.837 7        47.500
G27        12.000    21052274.405 7 110630460.05307      2061.263 7        46.750    21052274.012 7        47.750    21052277.831 7  86205554.87307      1606.174 7        47.750    21052278.269 7  86205558.88307      1606.205 7        45.000    21052276.592 8  82613660.57708      1539.210 8        49.750
R09         8.000    23403882.432 6 124975444.78406      3962.167 6        40.500    23403888.379 6  97203136.32406      3081.707 6        37.000    23403870.073 5  93838395.95305      2974.758 5        34.250
R15        11.000    20878609.581 7 111568946.71507     -3434.472 7        45.000    20878614.540 7  86775869.85107     -2671.343 7        45.500
R16         4.000    19998150.457 7 106826539.92707       785.785 7        46.250    19998155.586 7  83087334.29407       611.136 7        45.250    19998141.675 7  80183025.39207       589.726 7        47.000
R18        22.000    20163690.621 8 107635148.62308      1918.599 8        50.000    20163694.466 7  83716246.23707      1492.198 7        44.250
S21         5.000    38585015.111 6 202765633.97006         4.956 6        40.500
S36        28.000    38464155.994 6 202130548.58906         0.402 6        41.250
> 2026 04 16 10 54 46.0000000  0 19
C12        21.000    22127498.650 7 115223702.25307      1320.243 7        47.500    22127499.160 8  89098268.12908      1020.846 8        53.000
C24        23.000    23397199.894 8 121835367.57908     -2138.995 8        48.750
C25         2.000    23756309.871 7 123705339.83307      1152.837 7        44.750
C26        30.000    26142709.547 7 136131932.94607     -3476.117 7        42.500
C34         7.000    23532973.384 7 122542362.08707      2390.811 7        43.250
E02        26.000    24344642.962 6 127931962.65306     -1930.929 6        38.750    24344647.881 6  95533617.43306     -1441.852 6        37.750    24344644.317 6  98025792.44606     -1479.510 6        38.250    24344645.775 6  96779704.44906     -1460.708 6        41.000
E27        18.000    27670712.739 6 145410580.23706      2774.478 6        37.250    27670710.297 5 108585810.47005      2071.929 5        34.250    27670713.901 6 111418498.72506      2125.943 6        40.750    27670713.270 6 110002148.59106      2098.916 6        41.000
E34        29.000    24161147.347 8 126967686.25408      1655.244 8        49.500    24161151.778 7  94813553.02907      1236.048 7        46.500    24161148.303 7  97286933.40807      1268.318 7        46.250    24161149.739 8  96050240.72108      1252.167 8        49.250
G07        34.000    25254316.726 6 132712328.80006      1460.185 6        41.250    25254316.320 5        34.500    25254318.663 5 103412202.45605      1137.811 5        34.500    25254318.305 6 103412213.46006      1138.027 6        39.750
G08        14.000    23451091.964 6 123236321.86206      3221.438 6        40.250    23451091.499 5        34.000    23451095.635 5  96028315.10005      2510.208 5        34.000    23451096.704 6  96028326.10706      2510.217 6        39.500    23451097.652 8  92027151.33008      2405.646 8        50.000
G16         1.000    20391637.915 8 107158774.06208      -592.697 8        49.750    20391637.245 6        40.250    20391635.228 6  83500342.42806      -461.846 6        40.250
G26        13.000    21912355.483 7 115150200.11507     -2742.791 7        45.500    21912355.068 7        42.000    21912358.551 7  89727444.79907     -2137.236 7        42.000    21912358.014 6  89727454.79906     -2137.185 6        40.500    21912358.394 7  85988803.69407     -2048.173 7        47.500
G27        12.000    21051882.168 7 110628398.71507      2060.868 7        46.500    21051881.775 7        47.750    21051885.549 7  86203948.63507      1605.874 7        47.750    21051885.482 7  86203952.65107      1605.837 7        45.000    21051884.323 8  82612121.26708      1538.921 8        50.000
R09         8.000    23403140.590 6 124971482.61106      3961.694 6        40.750    23403146.913 6  97200054.62506      3081.318 6        37.000    23403127.944 5  93835420.90905      2974.530 5        34.250
R15        11.000    20879252.435 7 111572381.26207     -3435.179 7        45.000    20879257.188 7  86778541.15907     -2671.792 7        45.500
R16         4.000    19998003.332 7 106825754.32507       784.882 7        46.250    19998008.675 7  83086723.26407       610.462 7        45.250    19997994.612 7  80182435.72707       589.052 7        47.000
R18        22.000    20163331.196 8 107633229.98908      1918.152 8        50.250    20163335.341 7  83714753.96507      1491.808 7        44.250
S21         5.000    38585014.516 6 202765628.72006         4.988 6        40.250
S36        28.000    38464157.456 6 202130547.91606         0.466 6        41.500
> 2026 04 16 10 54 47.0000000  0 19
C12        21.000    22127244.984 7 115222381.98507      1319.920 7        47.250    22127245.615 8  89097247.21808      1020.638 8        53.000
C24        23.000    23397610.738 8 121837506.63808     -2139.475 8        48.500
C25         2.000    23756088.418 7 123704187.11207      1152.347 7        44.500
C26        30.000    26143377.160 7 136135408.95607     -3476.137 7        42.250
C34         7.000    23532514.139 7 122539971.22407      2390.582 7        43.250
E02        26.000    24345010.212 6 127933893.53206     -1931.137 6        38.500    24345015.113 6  95535059.32606     -1442.098 6        37.750    24345011.487 6  98027271.94206     -1479.752 6        38.250    24345013.096 6  96781165.14206     -1460.962 6        41.000
E27        18.000    27670183.450 6 145407805.63406      2774.359 6        37.000    27670181.925 5 108583738.55905      2071.679 5        34.250    27670185.243 6 111416372.73906      2125.865 6        40.750    27670185.109 6 110000049.64306      2098.800 6        41.250
E34        29.000    24160832.585 8 126966031.00008      1654.910 8        49.250    24160836.770 7  94812316.96007      1235.868 7        46.500    24160833.179 7  97285665.10307      1268.041 7        46.000    24160834.771 8  96048988.53608      1251.974 8        49.250
G07        34.000    25254039.048 6 132710868.63906      1459.833 6        41.250    25254038.642 5        34.750    25254040.801 5 103411064.66705      1137.532 5        34.750    25254041.377 6 103411075.67206      1137.531 6        39.500
G08        14.000    23450479.593 6 123233100.26306      3221.395 6        40.000    23450479.133 5        34.000    23450482.540 5  96025804.76805      2510.171 5        34.000    23450482.710 6  96025815.77806      2510.220 6        39.500    23450484.583 8  92024745.59508      2405.579 8        50.000
G16         1.000    20391750.765 8 107159366.91408      -593.331 8        49.500    20391750.095 6        40.250    20391748.051 6  83500804.39106      -462.335 6        40.250
G26        13.000    21912877.134 7 115152942.83807     -2743.067 7        45.250    21912876.719 7        42.000    21912880.478 7  89729581.98307     -2137.455 7        42.000    21912880.076 6  89729591.98006     -2137.348 6        40.250    21912880.299 7  85990851.83007     -2048.372 7        47.250
G27        12.000    21051489.998 7 110626337.86007      2060.514 7        46.500    21051489.605 7        47.750    21051493.356 7  86202342.77507      1605.596 7        47.750    21051493.548 7  86202346.78707      1605.697 7        44.750    21051492.140 8  82610582.32208      1538.709 8        50.000
R09         8.000    23402398.864 6 124967520.88006      3961.464 6        40.250    23402404.789 6  97196973.28106      3081.191 6        36.750    23402386.044 5  93832446.22505      2974.511 5        34.000
R15        11.000    20879895.383 7 111575816.54407     -3435.767 7        44.750    20879900.056 7  86781213.04607     -2672.193 7        45.250
R16         4.000    19997856.354 7 106824969.75307       783.974 7        46.000    19997861.470 7  83086113.04007       609.780 7        45.250    19997847.782 7  80181846.83607       588.359 7        47.000
R18        22.000    20162971.816 8 107631311.95708      1917.644 8        50.000    20162976.337 7  83713262.16207      1491.517 7        44.000
S21         5.000    38585012.540 6 202765623.63406         4.995 6        40.250
S36        28.000    38464156.325 6 202130547.33606         0.535 6        41.250
> 2026 04 16 10 54 48.0000000  0 19
C12        21.000    22126991.533 7 115221062.27407      1319.765 7        47.250    22126992.185 8  89096226.73608      1020.511 8        53.000
C24        23.000    23398021.778 8 121839646.34308     -2139.729 8        48.500
C25         2.000    23755867.028 7 123703035.16407      1151.900 7        44.500
C26        30.000    26144044.814 7 136138885.22307     -3475.975 7        42.500
C34         7.000    23532055.033 7 122537580.76907      2390.562 7        43.250
E02        26.000    24345377.690 6 127935824.97306     -1931.412 6        38.500    24345383.213 6  95536501.62506     -1442.397 6        38.000    24345379.371 6  98028751.88106     -1479.877 6        38.250    24345380.699 6  96782626.25606     -1461.100 6        41.000
E27        18.000    27669656.076 6 145405031.37906      2774.409 6        37.250    27669653.849 5 108581666.85005      2071.693 5        34.000    27669657.646 6 111414247.00406      2125.890 6        40.750    27669657.252 6 109997950.92406      2098.804 6        41.000
E34        29.000    24160517.608 8 126964376.32608      1654.727 8        49.250    24160521.936 7  94811081.32907      1235.688 7        46.500    24160518.319 7  97284397.23507      1267.916 7        46.250    24160519.906 8  96047736.78508      1251.806 8        49.250
G07        34.000    25253760.238 6 132709409.21906      1459.257 6        41.500    25253759.832 5        34.750    25253763.086 5 103409927.45805      1137.087 5        34.750    25253762.388 6 103409938.45906      1137.108 6        39.500
G08        14.000    23449866.176 6 123229879.04006      3221.432 6        40.500    23449865.716 5        34.000    23449869.525 5  96023294.72805      2510.205 5        34.000    23449869.816 6  96023305.73606      2510.131 6        39.500    23449871.569 8  92022340.14108      2405.603 8        50.000
G16         1.000    20391863.665 8 107159960.66308      -593.876 8        49.750    20391862.990 6        40.250    20391861.040 6  83501267.05106      -462.757 6        40.250
G26        13.000    21913399.209 7 115155686.23507     -2743.360 7        45.500    21913398.794 7        42.000    21913402.540 7  89731719.69407     -2137.676 7        42.000    21913402.281 6  89731729.68706     -2137.607 6        40.500    21913402.254 7  85992900.47007     -2048.662 7        47.500
G27        12.000    21051097.738 7 110624277.62907      2060.280 7        46.500    21051097.345 7        47.500    21051101.289 7  86200737.40007      1605.409 7        47.500    21051101.168 7  86200741.41707      1605.326 7        45.000    21051100.202 8  82609043.83508      1538.481 8        50.000
R09         8.000    23401656.396 6 124963559.71806      3961.182 6        40.500    23401662.822 6  97193892.37606      3080.917 6        36.500    23401644.215 5  93829471.96205      2974.476 5        33.750
R15        11.000    20880538.514 7 111579252.67707     -3436.240 7        44.500    20880542.892 7  86783885.58707     -2672.580 7        45.250
R16         4.000    19997709.980 7 106824186.29707       783.208 7        46.250    19997715.006 7  83085503.68707       609.156 7        45.500    19997701.157 7  80181258.77807       587.890 7        47.000
R18        22.000    20162612.799 8 107629394.66408      1917.257 8        50.000    20162617.141 7  83711770.93607      1491.182 7        44.000
S21         5.000    38585014.029 6 202765618.74906         5.156 6        40.500
S36        28.000    38464158.019 6 202130547.03106         0.467 6        41.500
> 2026 04 16 10 54 49.0000000  0 19
C12        21.000    22126738.054 7 115219742.84007      1319.023 7        47.000    22126738.703 8  89095206.46308      1019.920 8        53.000
C24        23.000    23398432.787 8 121841786.46008     -2140.650 8        48.500
C25         2.000    23755645.683 7 123701883.72107      1150.923 7        44.250
C26        30.000    26144712.257 7 136142361.49607     -3476.596 7        42.250
C34         7.000    23531595.936 7 122535190.50907      2389.749 7        43.250
E02        26.000    24345745.620 6 127937756.69506     -1932.125 6        38.750    24345750.601 6  95537944.15706     -1442.894 6        37.750    24345747.095 6  98030232.05206     -1480.600 6        38.250    24345748.271 6  96784087.60906     -1461.717 6        41.000
E27        18.000    27669128.139 6 145402257.18906      2773.887 6        37.000    27669125.697 5 108579595.23605      2071.544 5        33.750    27669129.690 6 111412121.34806      2125.372 6        40.750    27669129.417 6 109995852.28306      2098.361 6        41.000
E34        29.000    24160202.765 8 126962721.97608      1653.870 8        49.250    24160207.018 7  94809845.94007      1235.002 7        46.500    24160203.481 7  97283129.62107      1267.246 7        46.250    24160205.140 8  96046485.28408      1251.118 8        49.250
G07        34.000    25253483.712 6 132707950.24206      1458.545 6        41.250    25253483.306 5        34.750    25253485.456 5 103408790.59005      1136.530 5        34.750    25253485.814 6 103408801.59806      1136.410 6        39.500
G08        14.000    23449252.745 6 123226657.92806      3220.852 6        40.250    23449252.289 5        34.000    23449256.537 5  96020784.77405      2509.751 5        34.000    23449257.320 6  96020795.79806      2509.651 6        39.250    23449258.469 8  92019934.77108      2405.136 8        50.000
G16         1.000    20391976.627 8 107160555.05108      -595.026 8        49.750    20391975.957 6        40.250    20391974.163 6  83501730.21006      -463.663 6        40.250
G26        13.000    21913921.655 7 115158430.02307     -2744.320 7        45.250    21913921.240 7        42.000    21913924.674 7  89733857.70607     -2138.430 7        42.000    21913924.289 6  89733867.70606     -2138.463 6        40.250    21913924.589 7  85994949.40007     -2049.301 7        47.500
G27        12.000    21050705.622 7 110622217.74307      2059.367 7        46.500    21050705.229 7        47.500    21050709.288 7  86199132.29407      1604.699 7        47.500    21050709.713 7  86199136.31107      1604.723 7        45.000    21050708.148 8  82607505.61408      1537.807 8        50.000
R09         8.000    23400914.706 6 124959598.82006      3960.525 6        40.250    23400921.427 6  97190811.67306      3080.417 6        36.500    23400902.427 5  93826497.92905      2973.615 5        33.750
R15        11.000    20881181.256 7 111582689.35807     -3437.268 7        44.000    20881186.018 7  86786558.56507     -2673.456 7        45.250
R16         4.000    19997563.749 7 106823403.69507       781.860 7        46.250    19997568.954 7  83084894.99107       608.062 7        45.500    19997554.739 7  80180671.36307       586.871 7        47.000
R18        22.000    20162253.651 8 107627477.83608      1916.289 8        49.750    20162258.065 7  83710280.07107      1490.359 7        44.000
S21         5.000    38585013.743 6 202765613.88006         4.557 6        40.250
S36        28.000    38464156.338 6 202130546.73806        -0.023 6        41.250
> 2026 04 16 10 54 50.0000000  0 19
C12        21.000    22126484.737 7 115218423.82707      1318.787 7        47.500    22126485.318 8  89094186.51808      1019.774 8        53.000
C24        23.000    23398843.899 8 121843927.12408     -2140.962 8        48.750
C25         2.000    23755424.838 7 123700732.92207      1150.575 7        44.250
C26        30.000    26145379.839 7 136145837.91107     -3476.558 7        42.500
C34         7.000    23531137.179 7 122532800.55707      2389.810 7        43.500
E02        26.000    24346113.021 6 127939688.90206     -1932.532 6        38.500    24346118.602 6  95539387.04106     -1443.255 6        37.750    24346114.654 6  98031712.55006     -1480.679 6        38.500    24346116.018 6  96785549.30306     -1461.987 6        41.000
E27        18.000    27668600.559 6 145399483.23406      2773.842 6        37.000    27668598.466 5 108577523.76305      2071.288 5        34.000    27668601.609 6 111409995.85806      2125.320 6        40.750    27668601.533 6 109993753.80706      2098.346 6        41.000
E34        29.000    24159888.111 8 126961068.09608      1653.619 8        49.500    24159892.390 7  94808610.90107      1234.781 7        46.500    24159888.835 7  97281862.36007      1267.034 7        46.250    24159890.364 8  96045234.13408      1250.906 8        49.500
G07        34.000    25253206.002 6 132706491.89006      1458.070 6        41.500    25253205.600 5        34.750    25253207.943 5 103407654.21305      1136.157 5        34.750    25253206.834 6 103407665.22006      1136.076 6        39.500
G08        14.000    23448640.432 6 123223437.09406      3220.669 6        40.500    23448639.976 5        34.000    23448643.603 5  96018275.03605      2509.606 5        34.000    23448642.700 6  96018286.04906      2509.553 6        39.500    23448645.570 8  92017529.60208      2405.095 8        50.000
G16         1.000    20392089.956 8 107161150.22508      -595.617 8        49.750    20392089.286 6        40.250    20392087.429 6  83502193.98306      -464.119 6        40.250
G26        13.000    21914443.999 7 115161174.35507     -2744.635 7        45.500    21914443.588 7        42.000    21914446.924 7  89735996.14607     -2138.672 7        42.000    21914446.172 6  89736006.13506     -2138.709 6        40.500    21914446.700 7  85996998.73807     -2049.570 7        47.500
G27        12.000    21050314.091 7 110620158.34907      2059.133 7        46.500    21050313.698 7        47.250    21050317.382 7  86197527.57307      1604.517 7        47.250    21050318.003 7  86197531.58607      1604.556 7        45.000    21050316.385 8  82605967.74608      1537.658 8        50.250
R09         8.000    23400173.387 6 124955638.38406      3960.181 6        40.250    23400179.584 6  97187731.34706      3080.073 6        36.500    23400160.768 5  93823524.19505      2973.677 5        33.750
R15        11.000    20881824.137 7 111586126.71307     -3437.663 7        44.000    20881829.149 7  86789232.05207     -2673.804 7        45.250
R16         4.000    19997417.285 7 106822622.10707       781.025 7        46.500    19997422.785 7  83084287.08707       607.499 7        45.750    19997408.467 7  80180084.71607       586.213 7        47.000
R18        22.000    20161894.678 8 107625561.62608      1915.849 8        50.000    20161898.761 7  83708789.68007      1490.157 7        44.000
S21         5.000    38585013.528 6 202765609.12306         4.603 6        40.500
S36        28.000    38464153.887 6 202130546.55906         0.146 6        41.250
> 2026 04 16 10 54 51.0000000  0 19
C12        21.000    22126231.500 7 115217105.45807      1317.729 7        47.250    22126232.112 8  89093167.07408      1018.969 8        53.000
C24        23.000    23399255.038 8 121846068.54508     -2142.104 8        48.750
C25         2.000    23755203.909 7 123699582.99207      1149.269 7        44.250
C26        30.000    26146047.502 7 136149314.68207     -3477.273 7        42.250
C34         7.000    23530678.243 7 122530411.12507      2388.956 7        43.750
E02        26.000    24346480.553 6 127941621.75406     -1933.499 6        38.750    24346486.134 6  95540830.39806     -1443.976 6        37.750    24346482.351 6  98033193.56706     -1481.444 6        38.250    24346483.786 6  96787011.49306     -1462.766 6        41.000
E27        18.000    27668071.879 6 145396709.73606      2772.933 6        37.000    27668070.448 5 108575452.64105      2070.524 5        34.000    27668074.038 6 111407870.68206      2124.764 6        40.750    27668073.730 6 109991655.65906      2097.664 6        41.000
E34        29.000    24159573.635 8 126959414.89308      1652.569 8        49.500    24159577.668 7  94807376.36607      1234.042 7        46.500    24159574.194 7  97280595.62107      1266.238 7        46.250    24159575.781 8  96043983.49608      1250.151 8        49.250
G07        34.000    25252928.771 6 132705034.36206      1456.813 6        41.250    25252928.369 5        34.750    25252930.591 5 103406518.47805      1135.176 5        34.750    25252930.550 6 103406529.48706      1135.072 6        39.500
G08        14.000    23448027.445 6 123220216.70906      3219.871 6        40.500    23448026.998 5        34.000    23448030.745 5  96015765.65205      2508.983 5        34.000    23448031.160 6  96015776.65506      2508.975 6        39.250    23448032.712 8  92015124.77508      2404.476 8        49.750
G16         1.000    20392203.446 8 107161746.39308      -596.995 8        49.750    20392202.776 6        40.250    20392200.883 6  83502658.52906      -465.192 6        40.250
G26        13.000    21914966.150 7 115163919.44607     -2745.772 7        45.500    21914965.739 7        42.000    21914969.316 7  89738135.17707     -2139.563 7        42.000    21914968.435 6  89738145.16106     -2139.602 6        40.500    21914969.321 7  85999048.63507     -2050.413 7        47.500
G27        12.000    21049922.435 7 110618099.66807      2058.030 7        46.250    21049922.046 7        47.250    21049925.610 7  86195923.40807      1603.657 7        47.250    21049925.806 7  86195927.42607      1603.545 7        45.000    21049924.662 8  82604430.42308      1536.819 8        50.250
R09         8.000    23399431.714 6 124951678.62506      3959.153 6        40.250    23399438.154 6  97184651.51606      3079.494 6        36.750    23399419.391 5  93820551.00605      2972.535 5        33.750
R15        11.000    20882467.165 7 111589564.97507     -3439.002 7        43.250    20882472.432 7  86791906.24907     -2674.785 7        45.250
R16         4.000    19997271.309 7 106821841.75407       779.421 7        46.250    19997276.966 7  83083680.13807       606.232 7        45.750    19997262.420 7  80179498.99107       584.975 7        47.250
R18        22.000    20161535.750 8 107623646.21108      1914.693 8        49.750    20161539.936 7  83707299.92007      1489.160 7        43.750
S21         5.000    38585012.799 6 202765604.67706         4.016 6        40.500
S36        28.000    38464153.798 6 202130546.71106        -0.493 6        41.500
> 2026 04 16 10 54 52.0000000  0 19
C12        21.000    22125978.375 7 115215787.48907      1317.904 7        47.250    22125979.010 8  89092147.93708      1019.104 8        53.000
C24        23.000    23399666.454 8 121848210.47308     -2142.052 8        48.750
C25         2.000    23754983.136 7 123698433.66807      1149.223 7        44.250
C26        30.000    26146715.240 7 136152791.56807     -3476.871 7        42.250
C34         7.000    23530219.508 7 122528021.98907      2389.080 7        43.750
E02        26.000    24346848.304 6 127943555.02506     -1933.197 6        38.500    24346854.336 6  95542274.08106     -1443.858 6        37.750    24346850.441 6  98034674.90806     -1481.306 6        38.250    24346851.675 6  96788474.00006     -1462.565 6        41.000
E27        18.000    27667544.272 6 145393936.41806      2773.321 6        36.750    27667542.966 5 108573381.64705      2071.168 5        34.250    27667546.203 6 111405745.67106      2125.124 6        40.750    27667545.841 6 109989557.65506      2098.118 6        41.000
E34        29.000    24159259.079 8 126957762.12408      1652.742 8        49.250    24159263.166 7  94806142.15607      1234.151 7        46.500    24159259.834 7  97279329.21307      1266.421 7        46.250    24159261.305 8  96042733.18708      1250.308 8        49.250
G07        34.000    25252651.579 6 132703577.41306      1456.729 6        41.500    25252651.177 5        34.750    25252653.354 5 103405383.19105      1135.115 5        34.750    25252652.420 6 103405394.19506      1135.057 6        39.500
G08        14.000    23447415.512 6 123216996.56506      3220.076 6        40.500    23447415.065 5        34.000    23447417.936 5  96013256.45305      2509.146 5        34.000    23447417.837 6  96013267.45306      2509.296 6        39.000    23447419.885 8  92012720.11708      2404.736 8        49.750
G16         1.000    20392317.669 8 107162343.31308      -597.173 8        49.750    20392316.999 6        40.250    20392314.476 6  83503123.65906      -465.330 6        40.250
G26        13.000    21915489.075 7 115166665.03807     -2745.678 7        45.500    21915488.660 7        42.000    21915491.799 7  89740274.59607     -2139.483 7        42.000    21915491.275 6  89740284.59006     -2139.479 6        40.250    21915491.575 7  86001098.91507     -2050.373 7        47.500
G27        12.000    21049530.247 7 110616041.44007      2058.110 7        46.250    21049529.854 7        47.250    21049533.922 7  86194319.59307      1603.724 7        47.250    21049534.459 7  86194323.61407      1603.680 7        45.000    21049533.015 8  82602893.43908      1536.941 8        50.250
R09         8.000    23398689.997 6 124947719.31306      3959.313 6        40.250    23398696.982 6  97181572.05406      3079.399 6        36.750    23398677.955 5  93817578.12205      2972.807 5        33.750
R15        11.000    20883110.215 7 111593003.89207     -3439.121 7        43.000    20883116.015 7  86794580.95707     -2674.775 7        45.250
R16         4.000    19997125.293 7 106821062.38907       778.989 7        46.250    19997130.842 7  83083073.96607       605.927 7        45.750    19997116.555 7  80178914.00507       584.735 7        47.250
R18        22.000    20161176.978 8 107621731.37208      1914.704 8        49.750    20161181.347 7  83705810.60207      1489.168 7        43.750
S21         5.000    38585011.869 6 202765600.33406         4.587 6        40.250
S36        28.000    38464154.415 6 202130546.80006         0.341 6        41.500
> 2026 04 16 10 54 53.0000000  0 19
C12        21.000    22125725.276 7 115214469.41707      1317.965 7        47.500    22125725.911 8  89091128.72208      1019.141 8        53.000
C24        23.000    23400077.835 8 121850352.43008     -2142.040 8        49.000
C25         2.000    23754762.452 7 123697284.47107      1149.110 7        44.250
C26        30.000    26147382.840 7 136156268.04707     -3476.422 7        42.250
C34         7.000    23529760.558 7 122525632.62907      2389.354 7        43.750
E02        26.000    24347216.493 6 127945488.22306     -1933.151 6        38.500    24347221.930 6  95543717.68906     -1443.644 6        37.750    24347218.259 6  98036156.19106     -1481.433 6        38.250    24347219.520 6  96789936.44506     -1462.535 6        41.000
E27        18.000    27667015.905 6 145391162.77406      2773.808 6        36.500    27667015.234 5 108571310.43605      2071.468 5        34.250    27667018.418 6 111403620.43106      2125.207 6        40.750    27667018.082 6 109987459.43106      2098.269 6        41.000
E34        29.000    24158944.473 8 126956109.29308      1652.674 8        49.250    24158948.592 7  94804907.89707      1234.183 7        46.500    24158945.099 7  97278062.76007      1266.359 7        46.250    24158946.807 8  96041482.83108      1250.278 8        49.250
G07        34.000    25252374.043 6 132702120.53806      1456.700 6        41.500    25252373.641 5        34.750    25252376.132 5 103404247.96405      1135.091 5        34.750    25252376.208 6 103404258.96906      1135.145 6        39.500
G08        14.000    23446801.357 6 123213776.11506      3220.431 6        40.250    23446800.915 5        34.000    23446805.068 5  96010747.01305      2509.422 5        34.000    23446804.022 6  96010758.02306      2509.436 6        39.000    23446807.063 8  92010315.25108      2404.897 8        49.750
G16         1.000    20392430.890 8 107162940.47708      -597.387 8        50.000    20392430.220 6        40.250    20392428.113 6  83503588.98206      -465.498 6        40.250
G26        13.000    21916011.173 7 115169410.64207     -2745.745 7        45.750    21916010.758 7        42.000    21916014.285 7  89742414.02507     -2139.544 7        42.000    21916013.525 6  89742424.01406     -2139.542 6        40.250    21916014.160 7  86003149.19907     -2050.375 7        47.250
G27        12.000    21049138.854 7 110613983.17907      2058.125 7        46.250    21049138.461 7        47.250    21049142.235 7  86192715.75407      1603.734 7        47.250    21049143.000 7  86192719.77407      1603.703 7        45.000    21049141.385 8  82601356.42208      1536.931 8        50.250
R09         8.000    23397948.379 6 124943759.93206      3959.186 6        40.500    23397954.635 6  97178492.57306      3079.343 6        37.000    23397936.458 5  93814605.20405      2972.927 5        34.000
R15        11.000    20883753.785 7 111596442.97907     -3439.278 7        42.750    20883759.513 7  86797255.79907     -2674.965 7        45.000
R16         4.000    19996979.402 7 106820283.51707       778.443 7        46.250    19996985.085 7  83082468.17107       605.548 7        45.750    19996970.825 7  80178329.39107       584.318 7        47.250
R18        22.000    20160818.184 8 107619816.61008      1914.625 8        50.000    20160822.705 7  83704321.34507      1489.114 7        43.500
S21         5.000    38585009.213 6 202765595.58206         4.802 6        40.250
S36        28.000    38464154.988 6 202130546.47006         0.542 6        41.500
> 2026 04 16 10 54 54.0000000  0 19
C12        21.000    22125472.433 7 115213152.29707      1316.438 7        47.250    22125472.934 8  89090110.24208      1017.912 8        53.000
C24        23.000    23400489.309 8 121852495.44608     -2143.740 8        48.750
C25         2.000    23754541.822 7 123696136.44207      1147.246 7        44.000
C26        30.000    26148050.435 7 136159745.22107     -3477.764 7        42.000
C34         7.000    23529302.020 7 122523244.10707      2387.848 7        44.000
E02        26.000    24347584.154 6 127947422.38506     -1934.732 6        38.250    24347590.137 6  95545162.03806     -1444.822 6        37.750    24347586.162 6  98037638.19006     -1482.420 6        38.250    24347587.615 6  96791399.62106     -1463.609 6        41.000
E27        18.000    27666488.960 6 145388389.91606      2772.213 6        36.750    27666487.556 5 108569239.78205      2070.154 5        34.000    27666490.601 6 111401495.75506      2124.166 6        40.750    27666490.458 6 109985361.76306      2097.193 6        40.750
E34        29.000    24158630.038 8 126954457.44308      1651.141 8        49.000    24158634.375 7  94803674.37207      1232.965 7        46.250    24158630.874 7  97276797.05807      1265.200 7        46.250    24158632.466 8  96040233.21708      1249.094 8        49.250
G07        34.000    25252097.545 6 132700664.81806      1454.746 6        41.500    25252097.143 5        34.750    25252099.124 5 103403113.63805      1133.578 5        34.750    25252098.337 6 103403124.64206      1133.704 6        39.250
G08        14.000    23446189.576 6 123210556.45806      3219.111 6        40.500    23446189.134 5        34.000    23446192.349 5  96008238.19505      2508.395 5        34.000    23446192.738 6  96008249.20506      2508.308 6        39.000    23446194.437 8  92007910.96908      2403.807 8        50.000
G16         1.000    20392544.393 8 107163538.95608      -599.374 8        49.750    20392543.718 6        40.250    20392542.010 6  83504055.32906      -467.047 6        40.250
G26        13.000    21916534.004 7 115172157.32207     -2747.478 7        45.750    21916533.589 7        42.000    21916536.978 7  89744554.29307     -2140.887 7        42.000    21916536.571 6  89744564.28706     -2140.920 6        40.000    21916536.884 7  86005200.29607     -2051.772 7        47.250
G27        12.000    21048747.431 7 110611925.94107      2056.471 7        46.000    21048747.042 7        47.000    21048750.740 7  86191112.71207      1602.445 7        47.000    21048751.344 7  86191116.72707      1602.522 7        44.750    21048750.002 8  82599820.17408      1535.689 8        50.500
R09         8.000    23397207.512 6 124939801.52606      3957.768 6        40.250    23397213.933 6  97175413.79406      3078.291 6        36.750    23397195.098 5  93811633.01205      2971.600 5        33.250
R15        11.000    20884397.314 7 111599883.28807     -3441.105 7        42.000    20884403.386 7  86799931.59507     -2676.440 7        45.000
R16         4.000    19996833.716 7 106819506.21207       776.286 7        46.000    19996839.587 7  83081863.60407       603.804 7        45.500    19996825.368 7  80177745.95207       582.706 7        47.250
R18        22.000    20160459.457 8 107617902.98108      1912.837 8        49.750    20160464.148 7  83702832.96907      1487.779 7        43.250
S21         5.000    38585007.152 6 202765591.47206         3.561 6        40.250
S36        28.000    38464153.847 6 202130546.62706        -0.607 6        41.250
> 2026 04 16 10 54 55.0000000  0 19
C12        21.000    22125219.665 7 115211835.54707      1316.389 7        47.250    22125220.068 8  89089092.04508      1017.919 8        53.000
C24        23.000    23400900.886 8 121854638.94808     -2143.939 8        48.750
C25         2.000    23754321.416 7 123694989.00207      1146.854 7        44.000
C26        30.000    26148718.361 7 136163222.45407     -3477.489 7        42.000
C34         7.000    23528843.464 7 122520855.84407      2387.928 7        44.000
E02        26.000    24347953.228 6 127949356.93906     -1934.916 6        38.250    24347958.089 6  95546606.66406     -1445.011 6        37.750    24347954.588 6  98039120.53106     -1482.678 6        38.500    24347955.809 6  96792863.10506     -1463.857 6        41.000
E27        18.000    27665960.280 6 145385617.19506      2772.389 6        36.750    27665959.766 5 108567169.24605      2070.473 5        33.750    27665963.084 6 111399371.20306      2124.425 6        40.500    27665962.766 6 109983264.22206      2097.380 6        40.750
E34        29.000    24158315.821 8 126952805.99408      1651.155 8        49.000    24158320.083 7  94802441.15407      1232.882 7        46.250    24158316.693 7  97275531.66507      1265.150 7        46.250    24158318.254 8  96038983.91108      1249.026 8        49.250
G07        34.000    25251820.564 6 132699209.62206      1454.753 6        41.750    25251820.162 5        34.750    25251822.214 5 103401979.71905      1133.573 5        34.750    25251821.861 6 103401990.73406      1133.490 6        39.250
G08        14.000    23445577.170 6 123207337.00706      3219.139 6        40.500    23445576.728 5        34.000    23445579.674 5  96005729.53705      2508.425 5        34.000    23445579.978 6  96005740.54906      2508.266 6        39.000    23445581.717 8  92005506.83208      2403.891 8        50.000
G16         1.000    20392658.948 8 107164138.14908      -599.781 8        49.750    20392658.278 6        40.250    20392656.036 6  83504522.23306      -467.367 6        40.250
G26        13.000    21917056.527 7 115174904.46807     -2747.571 7        45.750    21917056.112 7        42.000    21917059.751 7  89746694.92507     -2140.972 7        42.000    21917058.593 6  89746704.91806     -2141.074 6        40.250    21917059.523 7  86007251.72607     -2051.711 7        47.250
G27        12.000    21048355.618 7 110609869.13007      2056.350 7        46.000    21048355.229 7        47.000    21048359.330 7  86189510.00307      1602.347 7        47.000    21048359.974 7  86189514.02007      1602.379 7        44.750    21048358.561 8  82598284.24608      1535.613 8        50.500
R09         8.000    23396465.964 6 124935843.47006      3957.706 6        40.500    23396472.542 6  97172335.30806      3078.306 6        36.750    23396453.685 5  93808661.08305      2971.880 5        33.000
R15        11.000    20885041.044 6 111603324.25106     -3441.397 6        41.500    20885047.389 7  86802607.89507     -2676.713 7        45.000
R16         4.000    19996688.326 7 106818729.88807       775.649 7        46.000    19996694.152 7  83081259.79007       603.384 7        45.500    19996680.058 7  80177163.25707       582.138 7        47.250
R18        22.000    20160101.102 8 107615989.90508      1912.591 8        49.750    20160105.694 7  83701345.01207      1487.677 7        43.250
S21         5.000    38585006.324 6 202765587.42406         3.747 6        40.500
S36        28.000    38464154.048 6 202130546.81106        -0.285 6        41.250
> 2026 04 16 10 54 56.0000000  0 19
C12        21.000    22124966.988 7 115210519.20507      1315.959 7        47.250    22124967.256 8  89088074.16608      1017.602 8        53.000
C24        23.000    23401312.655 8 121856782.98808     -2144.447 8        48.750
C25         2.000    23754101.005 7 123693842.19307      1146.474 7        44.000
C26        30.000    26149386.185 7 136166699.83707     -3477.653 7        42.000
C34         7.000    23528384.976 7 122518467.88607      2387.651 7        44.000
E02        26.000    24348321.256 6 127951291.92606     -1935.311 6        38.250    24348326.426 6  95548051.62206     -1445.244 6        37.750    24348322.562 6  98040603.17806     -1482.787 6        38.500    24348323.962 6  96794326.91006     -1464.036 6        41.000
E27        18.000    27665433.241 6 145382844.69906      2772.284 6        36.500    27665431.967 5 108565098.87905      2070.009 5        33.500    27665435.459 6 111397246.83206      2124.117 6        40.500    27665435.329 6 109981166.85006      2097.090 6        40.500
E34        29.000    24158001.565 8 126951155.01508      1650.636 8        49.000    24158005.969 7  94801208.28007      1232.540 7        46.500    24158002.347 7  97274266.62807      1264.772 7        46.250    24158004.046 8  96037734.95708      1248.659 8        49.250
G07        34.000    25251544.392 6 132697755.05106      1454.084 6        41.750    25251543.990 5        34.750    25251545.416 5 103400846.28605      1133.059 5        34.750    25251545.854 6 103400857.29506      1133.068 6        39.500
G08        14.000    23444963.918 6 123204117.79006      3218.894 6        40.500    23444963.480 5        33.750    23444967.035 5  96003221.05905      2508.219 5        33.750    23444967.097 6  96003232.07406      2508.182 6        39.000    23444969.163 8  92003102.88208      2403.727 8        50.000
G16         1.000    20392772.759 8 107164738.11808      -600.538 8        49.750    20392772.084 6        40.250    20392770.206 6  83504989.74206      -467.950 6        40.250
G26        13.000    21917579.546 7 115177652.15107     -2748.118 7        45.750    21917579.131 7        42.000    21917582.635 7  89748835.97507     -2141.389 7        42.000    21917580.641 6  89748845.96906     -2141.332 6        40.000    21917582.452 7  86009303.57007     -2052.212 7        47.250
G27        12.000    21047964.508 7 110607812.81407      2055.947 7        46.000    21047964.119 7        47.000    21047968.009 7  86187907.67907      1602.035 7        47.000    21047968.148 7  86187911.69907      1601.960 7        44.750    21047967.236 8  82596748.68408      1535.274 8        50.500
R09         8.000    23395724.820 6 124931885.87106      3957.208 6        40.500    23395731.684 6  97169257.18206      3077.769 6        37.250    23395712.447 5  93805689.48705      2971.634 5        33.250
R15        11.000    20885684.622 6 111606765.91506     -3442.250 6        41.250    20885691.424 7  86805284.73807     -2677.240 7        45.000
R16         4.000    19996543.150 7 106817954.60807       774.644 7        46.250    19996549.142 7  83080656.79907       602.488 7        45.750    19996534.994 7  80176581.33507       581.423 7        47.250
R18        22.000    20159742.746 8 107614077.43308      1912.037 8        49.750    20159747.168 7  83699857.54607      1487.073 7        43.250
S21         5.000    38585005.282 6 202765583.47106         3.743 6        40.250
S36        28.000    38464156.235 6 202130547.04606        -0.389 6        41.500
> 2026 04 16 10 54 57.0000000  0 19
C12        21.000    22124714.220 7 115209202.48807      1317.238 7        47.250    22124714.390 8  89087055.99708      1018.602 8        53.000
C24        23.000    23401724.380 8 121858926.78208     -2143.367 8        48.750
C25         2.000    23753880.688 7 123692695.24707      1147.379 7        43.750
C26        30.000    26150053.865 6 136170176.56606     -3476.184 6        41.750
C34         7.000    23527926.281 7 122516079.44307      2389.058 7        44.250
E02        26.000    24348689.163 6 127953226.59506     -1934.099 6        38.250    24348694.691 6  95549496.31306     -1444.150 6        37.500    24348690.393 6  98042085.57706     -1482.002 6        38.250    24348692.160 6  96795790.45406     -1463.094 6        40.750
E27        18.000    27664906.006 6 145380071.59906      2773.758 6        36.500    27664904.655 5 108563028.07205      2071.322 5        33.750    27664908.089 6 111395122.00206      2125.267 6        40.250    27664907.579 6 109979069.03306      2098.241 6        40.750
E34        29.000    24157687.509 8 126949503.69508      1651.768 8        49.000    24157691.717 7  94799975.15007      1233.528 7        46.250    24157688.318 7  97273001.33007      1265.785 7        46.250    24157689.816 8  96036485.74408      1249.634 8        49.250
G07        34.000    25251266.785 6 132696300.28606      1455.151 6        41.750    25251266.383 5        34.750    25251268.596 5 103399712.70205      1133.884 5        34.750    25251268.801 6 103399723.70106      1134.004 6        39.500
G08        14.000    23444351.149 6 123200898.04506      3220.397 6        40.750    23444350.716 5        33.750    23444354.288 5  96000712.17205      2509.395 5        33.750    23444355.514 6  96000723.17906      2509.462 6        39.000    23444356.323 8  92000698.52708      2404.828 8        49.750
G16         1.000    20392886.777 8 107165338.06108      -599.575 8        49.750    20392886.102 6        40.250    20392884.384 6  83505457.22706      -467.197 6        40.250
G26        13.000    21918102.712 7 115180399.57607     -2747.000 7        45.750    21918102.297 7        42.250    21918105.458 7  89750976.82207     -2140.518 7        42.250    21918104.729 6  89750986.81106     -2140.371 6        40.000    21918105.185 7  86011355.21107     -2051.277 7        47.250
G27        12.000    21047572.906 7 110605756.18507      2057.155 7        45.750    21047572.517 7        46.750    21047576.635 7  86186305.11207      1602.977 7        46.750    21047576.850 7  86186309.13407      1602.962 7        44.750    21047575.839 8  82595212.89408      1536.200 8        50.500
R09         8.000    23394984.185 6 124927927.92106      3958.432 6        40.500    23394990.620 6  97166178.77906      3078.802 6        37.250    23394971.217 5  93802717.66205      2972.355 5        33.250
R15        11.000    20886328.496 6 111610207.45406     -3440.990 6        40.750    20886335.467 7  86807961.48907     -2676.429 7        45.000
R16         4.000    19996397.979 7 106817179.53107       775.339 7        46.250    19996404.047 7  83080053.96107       603.093 7        45.750    19996389.930 7  80175999.56807       581.980 7        47.250
R18        22.000    20159384.538 8 107612164.76608      1913.153 8        49.750    20159388.888 7  83698369.90907      1488.058 7        43.000
S21         5.000    38585005.019 6 202765578.84806         5.269 6        40.500
S36        28.000    38464157.290 6 202130546.63106         0.908 6        41.500
> 2026 04 16 10 54 58.0000000  0 19
C12        21.000    22124461.426 7 115207885.97307      1315.870 7        47.500    22124461.573 8  89086037.98808      1017.437 8        53.250
C24        23.000    23402136.176 8 121861070.88708     -2144.853 8        48.750
C25         2.000    23753660.309 7 123691548.72007      1145.743 7        43.750
C26        30.000    26150721.483 6 136173653.19006     -3477.085 6        41.750
C34         7.000    23527467.743 7 122513691.09107      2387.671 7        44.500
E02        26.000    24349056.811 6 127955161.44606     -1935.607 6        38.250    24349062.593 6  95550941.18706     -1445.476 6        37.500    24349058.578 6  98043568.13906     -1483.172 6        38.250    24349060.322 6  96797254.17006     -1464.307 6        40.750
E27        18.000    27664377.022 6 145377298.54306      2772.356 6        36.500    27664376.400 5 108560957.27205      2070.191 5        34.000    27664379.915 6 111392997.17606      2124.380 6        40.500    27664379.915 6 109976971.21706      2097.334 6        41.000
E34        29.000    24157373.118 8 126947852.61108      1650.350 8        48.750    24157377.505 7  94798742.20207      1232.392 7        46.500    24157374.008 7  97271736.22107      1264.529 7        46.250    24157375.622 8  96035236.71408      1248.464 8        49.250
G07        34.000    25250990.045 6 132694845.89706      1453.629 6        41.750    25250989.643 5        35.000    25250991.852 5 103398579.41205      1132.705 5        35.000    25250991.530 6 103398590.42106      1132.584 6        39.500
G08        14.000    23443739.360 6 123197678.31906      3219.159 6        40.750    23443738.927 5        34.000    23443741.560 5  95998203.30005      2508.426 5        34.000    23443741.900 6  95998214.30806      2508.332 6        39.000    23443743.787 8  91998294.18508      2403.922 8        50.000
G16         1.000    20393001.241 8 107165938.55708      -601.370 8        49.750    20393000.571 6        40.250    20392998.661 6  83505925.14906      -468.603 6        40.250
G26        13.000    21918625.606 7 115183147.31207     -2748.514 7        45.750    21918625.195 7        42.000    21918628.351 7  89753117.91507     -2141.698 7        42.000    21918627.193 6  89753127.91506     -2141.729 6        40.250    21918628.132 7  86013407.09907     -2052.511 7        47.250
G27        12.000    21047181.755 7 110603699.81907      2055.614 7        45.750    21047181.366 7        46.750    21047185.310 7  86184702.75007      1601.777 7        46.750    21047185.699 7  86184706.77507      1601.785 7        44.750    21047184.644 8  82593677.29608      1535.033 8        50.750
R09         8.000    23394242.486 6 124923970.21306      3956.910 6        40.500    23394249.529 6  97163100.54906      3077.664 6        37.500    23394230.064 5  93799746.00305      2971.255 5        33.000
R15        11.000    20886971.882 6 111613649.46506     -3442.858 6        40.250    20886979.448 7  86810638.60307     -2677.770 7        44.750
R16         4.000    19996253.295 7 106816405.23807       773.227 7        46.500    19996258.970 7  83079451.72907       601.400 7        45.750    19996245.023 7  80175418.38907       580.377 7        47.250
R18        22.000    20159026.271 8 107610252.45708      1911.503 8        49.750    20159030.550 7  83696882.56407      1486.715 7        43.250
S21         5.000    38585004.701 6 202765574.09306         4.251 6        40.250
S36        28.000    38464157.975 6 202130546.06506        -0.052 6        41.500
> 2026 04 16 10 54 59.0000000  0 19
C12        21.000    22124208.895 7 115206570.52407      1314.645 7        47.250    22124208.963 8  89085020.79608      1016.612 8        53.250
C24        23.000    23402548.053 8 121863216.19108     -2146.177 8        48.750
C25         2.000    23753440.305 7 123690403.50207      1144.174 7        43.750
C26        30.000    26151389.029 6 136177130.63006     -3477.973 6        41.500
C34         7.000    23527009.406 7 122511303.69707      2386.658 7        44.500
E02        26.000    24349425.984 6 127957097.40706     -1936.670 6        38.500    24349431.279 6  95552386.86606     -1446.309 6        37.750    24349427.165 6  98045051.51906     -1483.858 6        38.250    24349428.703 6  96798718.69906     -1465.099 6        40.750
E27        18.000    27663849.884 6 145374526.33806      2771.534 6        36.250    27663849.298 5 108558887.12305      2069.449 5        33.750    27663852.442 6 111390873.02006      2123.739 6        40.500    27663852.379 6 109974874.06506      2096.676 6        40.750
E34        29.000    24157058.933 8 126946202.63508      1649.208 8        49.000    24157063.499 7  94797510.07507      1231.552 7        46.250    24157060.073 7  97270471.95807      1263.657 7        46.250    24157061.665 8  96033988.52008      1247.599 8        49.250
G07        34.000    25250713.681 6 132693392.77806      1452.276 6        41.750    25250713.279 5        35.000    25250715.340 5 103397447.11205      1131.644 5        35.000    25250714.870 6 103397458.12406      1131.491 6        39.750
G08        14.000    23443126.233 6 123194459.49206      3218.111 6        41.000    23443125.800 5        34.000    23443129.001 5  95995695.12905      2507.613 5        34.000    23443129.064 6  95995706.13406      2507.694 6        39.000    23443131.183 8  91995890.52308      2403.181 8        49.750
G16         1.000    20393115.760 8 107166540.48608      -602.891 8        49.500    20393115.090 6        40.250    20393113.211 6  83506394.18506      -469.781 6        40.250
G26        13.000    21919148.531 7 115185896.23507     -2749.705 7        45.750    21919148.116 7        42.000    21919151.477 7  89755259.93307     -2142.621 7        42.000    21919151.129 6  89755269.92806     -2142.765 6        40.250    21919151.151 7  86015459.86007     -2053.383 7        47.000
G27        12.000    21046790.291 7 110601644.61207      2054.306 7        45.500    21046789.902 7        46.750    21046794.199 7  86183101.29007      1600.764 7        46.750    21046794.718 7  86183105.30607      1600.784 7        44.750    21046793.502 8  82592142.56008      1534.113 8        50.500
R09         8.000    23393500.840 6 124920013.56706      3955.781 6        40.500    23393509.006 6  97160023.17506      3076.821 6        37.250    23393489.241 5  93796775.12605      2970.180 5        32.750
R15        11.000    20887615.889 6 111617092.81106     -3444.379 6        40.250    20887623.894 7  86813316.75907     -2678.874 7        45.000
R16         4.000    19996108.763 7 106815632.61607       771.518 7        46.750    19996114.308 7  83078850.79907       600.155 7        45.750    19996100.455 7  80174838.46807       579.125 7        47.500
R18        22.000    20158668.345 8 107608341.39508      1910.124 8        49.750    20158672.865 7  83695396.17707      1485.706 7        43.000
S21         5.000    38585005.519 6 202765570.11906         3.403 6        40.250
S36        28.000    38464157.724 6 202130546.39506        -0.990 6        41.250
> 2026 04 16 10 55  0.0000000  0 19
C12        21.000    22123956.401 7 115205255.53407      1315.068 7        47.500    22123956.486 8  89084003.96708      1016.866 8        53.250
C24        23.000    23402960.198 8 121865362.06408     -2145.871 8        49.000
C25         2.000    23753220.587 7 123689258.94707      1144.492 7        44.000
C26        30.000    26152056.875 6 136180608.22406     -3477.480 6        41.500
C34         7.000    23526551.096 7 122508916.66107      2387.112 7        44.750
E02        26.000    24349794.115 6 127959033.84406     -1936.327 6        38.500    24349799.512 6  95553832.92406     -1445.981 6        37.750    24349795.939 6  98046535.29206     -1483.856 6        38.250    24349797.106 6  96800183.61506     -1464.939 6        41.000
E27        18.000    27663321.643 6 145371754.39706      2772.134 6        36.500    27663321.580 5 108556817.14105      2070.141 5        33.500    27663324.920 6 111388749.07706      2124.012 6        40.250    27663324.764 6 109972777.10906      2097.072 6        40.500
E34        29.000    24156745.173 8 126944553.17108      1649.501 8        48.750    24156749.671 7  94796278.33307      1231.813 7        46.500    24156746.183 7  97269208.08307      1263.901 7        46.250    24156747.748 8  96032740.71208      1247.858 8        49.250
G07        34.000    25250437.925 7 132691940.31107      1452.454 7        42.000    25250437.523 5        35.000    25250438.958 5 103396315.31605      1131.786 5        35.000    25250439.253 6 103396326.31606      1131.906 6        39.750
G08        14.000    23442513.849 6 123191240.96406      3218.632 6        41.000    23442513.416 5        34.000    23442516.505 5  95993187.19005      2508.022 5        34.000    23442518.048 6  95993198.19706      2508.034 6        39.000    23442518.683 8  91993487.08108      2403.534 8        49.750
G16         1.000    20393230.399 8 107167143.23208      -602.815 8        49.750    20393229.724 6        40.250    20393227.917 6  83506863.85606      -469.723 6        40.250
G26        13.000    21919671.532 7 115188645.73807     -2749.478 7        45.750    21919671.117 7        42.000    21919674.702 7  89757402.39907     -2142.450 7        42.000    21919673.673 6  89757412.40106     -2142.529 6        40.500    21919674.411 7  86017513.06007     -2053.151 7        47.000
G27        12.000    21046399.243 7 110599589.92007      2054.701 7        45.250    21046398.854 7        46.500    21046403.192 7  86181500.23107      1601.062 7        46.500    21046403.469 7  86181504.25507      1601.075 7        44.500    21046402.561 8  82590608.22108      1534.336 8        50.750
R09         8.000    23392760.268 6 124916057.49106      3956.049 6        40.250    23392768.138 6  97156946.21606      3076.983 6        37.500    23392748.494 5  93793804.69205      2970.636 5        33.250
R15        11.000    20888260.201 6 111620536.91806     -3444.211 6        40.000    20888268.277 7  86815995.49907     -2678.815 7        45.250
R16         4.000    19995964.415 7 106814861.04107       771.347 7        47.000    19995970.063 7  83078250.69407       599.890 7        45.750    19995956.040 7  80174259.33407       578.907 7        47.250
R18        22.000    20158310.449 8 107606430.98408      1910.396 8        49.750    20158315.122 7  83693910.31507      1485.808 7        43.000
S21         5.000    38585004.965 6 202765566.29206         4.055 6        40.500
S36        28.000    38464156.740 6 202130546.88106        -0.182 6        41.250
> 2026 04 16 10 55  1.0000000  0 19
C12        21.000    22123703.857 7 115203940.70607      1314.996 7        47.000    22123704.072 8  89082987.25908      1016.801 8        52.750
C24        23.000    23403372.401 8 121867508.22108     -2146.102 8        48.750
C25         2.000    23753000.852 7 123688114.77207      1144.153 7        43.500
C26        30.000    26152724.667 6 136184085.71106     -3477.214 6        41.250
C34         7.000    23526092.786 7 122506529.65607      2387.173 7        44.750
E02        26.000    24350162.433 6 127960970.48606     -1936.559 6        38.250    24350168.461 6  95555279.10906     -1446.143 6        37.250    24350164.276 6  98048019.19506     -1483.732 6        38.000    24350165.725 6  96801648.65706     -1464.908 6        40.500
E27        18.000    27662794.134 6 145368982.39706      2772.142 6        36.500    27662793.996 5 108554747.14805      2070.404 5        33.500    27662797.372 6 111386625.06806      2124.342 6        40.250    27662797.255 6 109970680.11106      2097.359 6        40.500
E34        29.000    24156431.292 8 126942903.89508      1649.392 8        48.500    24156435.879 7  94795046.73307      1231.630 7        46.000    24156432.249 7  97267944.35307      1263.833 7        46.000    24156433.961 8  96031493.04708      1247.732 8        49.000
G07        34.000    25250161.091 6 132690488.18006      1452.207 6        41.500    25250160.689 5        35.000    25250162.638 5 103395183.78605      1131.590 5        35.000    25250162.366 6 103395194.79006      1131.645 6        39.500
G08        14.000    23441901.290 6 123188022.41906      3218.680 6        41.000    23441900.861 5        34.000    23441904.009 5  95990679.23605      2508.059 5        34.000    23441905.556 6  95990690.24306      2508.030 6        39.000    23441906.245 8  91991083.62708      2403.580 8        49.500
G16         1.000    20393345.292 8 107167746.49008      -603.304 8        49.250    20393344.622 6        40.250    20393342.721 6  83507333.93006      -470.108 6        40.250
G26        13.000    21920195.056 7 115191395.50707     -2749.658 7        45.500    21920194.636 7        42.000    21920197.976 7  89759545.07607     -2142.592 7        42.000    21920196.826 6  89759555.07006     -2142.522 6        40.250    21920197.609 7  86019566.45807     -2053.297 7        46.750
G27        12.000    21046008.808 7 110597535.45407      2054.543 7        45.000    21046008.424 7        46.500    21046012.229 7  86179899.35107      1600.937 7        46.500    21046012.157 7  86179903.36907      1601.031 7        44.500    21046011.656 8  82589074.03708      1534.229 8        50.500
R09         8.000    23392019.580 6 124912101.58406      3956.074 6        40.000    23392027.173 6  97153869.40006      3077.097 6        37.250    23392007.363 5  93790834.37805      2970.455 5        32.750
R15        11.000    20888904.709 6 111623981.46106     -3444.591 6        39.500    20888913.080 7  86818674.58307     -2679.094 7        45.000
R16         4.000    19995820.044 7 106814090.21707       770.683 7        46.500    19995825.848 7  83077651.16807       599.326 7        45.500    19995811.718 7  80173680.76007       578.420 7        47.250
R18        22.000    20157952.478 8 107604520.93508      1910.105 8        49.500    20157957.562 7  83692424.72207      1485.542 7        42.750
S21         5.000    38585003.064 6 202765562.28806         4.296 6        40.250
S36        28.000    38464155.931 6 202130547.13806        -0.234 6        40.750
> 2026 04 16 10 55  2.0000000  0 19
C12        21.000    22123451.407 7 115202625.84707      1315.377 7        46.500    22123451.649 8  89081970.54708      1016.962 8        52.750
C24        23.000    23403784.618 8 121869654.47308     -2145.868 8        48.000
C25         2.000    23752781.237 7 123686970.81207      1144.282 7        42.750
C26        30.000    26153392.244 6 136187562.88006     -3476.665 6        40.500
C34         7.000    23525634.516 7 122504142.53507      2387.660 7        44.000
E02        26.000    24350531.481 6 127962907.12006     -1936.330 6        37.750    24350536.851 6  95556725.30806     -1446.117 6        37.250    24350532.594 6  98049503.11506     -1483.720 6        37.500    24350534.218 6  96803113.72006     -1464.896 6        40.500
E27        18.000    27662267.283 5 145366210.22005      2772.467 5        35.500    27662266.326 5 108552677.02005      2070.525 5        32.750    27662269.850 6 111384500.93106      2124.369 6        40.000    27662269.769 6 109968582.97606      2097.366 6        40.250
E34        29.000    24156117.670 7 126941254.64107      1649.599 7        47.750    24156121.784 7  94793815.16207      1231.758 7        46.000    24156118.443 7  97266680.65307      1263.878 7        45.750    24156120.138 8  96030245.41108      1247.815 8        48.750
G07        34.000    25249884.848 6 132689036.19806      1452.439 6        41.000    25249884.446 5        35.000    25249886.337 5 103394052.37305      1131.769 5        35.000    25249885.907 6 103394063.41206      1131.343 6        39.250
G08        14.000    23441288.504 6 123184803.66806      3219.309 6        40.250    23441288.080 5        34.000    23441291.468 5  95988171.12205      2508.549 5        34.000    23441292.993 6  95988182.14806      2508.401 6        38.500    23441293.767 8  91988680.03508      2403.897 8        49.250
G16         1.000    20393460.128 8 107168350.08208      -603.331 8        48.500    20393459.458 6        40.250    20393457.593 6  83507804.26006      -470.129 6        40.250
G26        13.000    21920718.361 7 115194145.37907     -2749.480 7        44.750    21920717.941 7        42.000    21920721.267 7  89761687.83207     -2142.450 7        42.000    21920720.266 6  89761697.84406     -2142.519 6        40.000    21920720.762 7  86021619.95007     -2053.353 7        46.500
G27        12.000    21045617.434 7 110595481.03207      2054.743 7        44.250    21045617.050 7        46.500    21045621.270 7  86178298.50207      1601.099 7        46.500    21045621.861 7  86178302.53307      1601.127 7        44.000    21045620.716 8  82587539.90708      1534.302 8        50.250
R09         8.000    23391279.133 6 124908145.70406      3956.242 6        39.250    23391287.146 6  97150792.59906      3077.175 6        37.000    23391266.541 5  93787864.13505      2970.169 5        32.500
R15        11.000    20889549.942 6 111627426.26406     -3444.530 6        38.750    20889557.763 7  86821353.88407     -2679.185 7        45.000
R16         4.000    19995676.089 7 106813319.99207       770.363 7        46.250    19995681.799 7  83077052.10307       599.072 7        45.250    19995667.589 7  80173102.63707       578.152 7        47.000
R18        22.000    20157594.704 8 107602611.03908      1910.260 8        49.000    20157599.779 7  83690939.25907      1485.654 7        42.250
S21         5.000    38585002.403 6 202765557.97106         4.741 6        39.500
S36        28.000    38464156.955 6 202130547.01706         0.468 6        40.500
> 2026 04 16 10 55  3.0000000  0 19
C12        21.000    22123198.966 7 115201311.21007      1314.340 7        46.500    22123199.288 8  89080953.97908      1016.261 8        52.500
C24        23.000    23404196.785 8 121871801.06708     -2147.010 8        48.000
C25         2.000    23752561.493 7 123685827.26207      1143.161 7        42.500
C26        30.000    26154059.916 6 136191039.97606     -3477.178 6        40.500
C34         7.000    23525176.179 7 122501755.50907      2386.792 7        44.000
E02        26.000    24350900.028 6 127964843.95306     -1937.178 6        37.750    24350905.572 6  95558171.63306     -1446.616 6        36.750    24350901.034 6  98050987.19506     -1484.502 6        37.500    24350902.827 6  96804578.92406     -1465.546 6        40.250
E27        18.000    27661739.046 5 145363437.96905      2772.104 5        35.250    27661738.952 5 108550606.85305      2070.337 5        32.750    27661741.975 6 111382376.77006      2123.898 6        39.750    27661742.234 6 109966485.81006      2097.015 6        40.000
E34        29.000    24155803.615 7 126939605.61907      1648.687 7        47.750    24155808.274 7  94792583.75007      1231.087 7        45.750    24155804.688 7  97265417.11607      1263.205 7        45.250    24155806.311 8  96028997.93508      1247.162 8        48.500
G07        34.000    25249608.958 6 132687584.63706      1451.213 6        41.000    25249608.556 5        34.750    25249610.120 5 103392921.28705      1130.817 5        34.750    25249608.989 6 103392932.31106      1130.664 6        38.750
G08        14.000    23440677.734 6 123181584.96706      3218.626 6        40.250    23440677.310 5        33.750    23440678.941 5  95985663.04805      2508.019 5        33.750    23440679.688 6  95985674.06306      2507.932 6        38.000    23440681.271 8  91986276.45708      2403.368 8        49.000
G16         1.000    20393575.143 8 107168954.23208      -604.643 8        48.500    20393574.468 6        40.000    20393572.567 6  83508275.02706      -471.148 6        40.000
G26        13.000    21921241.688 7 115196895.56107     -2750.547 7        44.750    21921241.268 6        41.750    21921244.622 6  89763830.82806     -2143.279 6        41.750    21921243.924 6  89763840.83806     -2143.313 6        39.750    21921244.197 7  86023673.64307     -2054.009 7        46.000
G27        12.000    21045226.404 7 110593426.88107      2053.792 7        44.250    21045226.020 7        46.250    21045230.366 7  86176697.86707      1600.353 7        46.250    21045230.325 7  86176701.90007      1600.326 7        43.500    21045229.798 8  82586005.96008      1533.659 8        50.000
R09         8.000    23390537.908 6 124904190.01006      3955.476 6        39.000    23390546.153 6  97147715.96706      3076.347 6        36.500    23390525.821 5  93784893.95205      2970.027 5        32.250
R15        11.000    20890195.005 6 111630871.51606     -3445.782 6        38.500    20890202.728 7  86824033.51407     -2680.049 7        44.500
R16         4.000    19995532.148 7 106812550.54707       768.809 7        46.000    19995537.728 7  83076453.64007       597.899 7        44.500    19995523.611 7  80172525.09707       577.010 7        46.750
R18        22.000    20157237.153 8 107600701.51408      1909.073 8        48.750    20157241.647 6  83689454.07806      1484.796 6        41.500
S21         5.000    38585000.842 6 202765553.49306         4.258 6        39.250
S36        28.000    38464156.164 6 202130546.82006         0.198 6        40.250
> 2026 04 16 10 55  4.0000000  0 19
C12        21.000    22122946.601 7 115199996.74507      1313.187 7        47.250    22122946.852 8  89079937.53408      1015.479 8        53.000
C24        23.000    23404609.198 8 121873947.92208     -2148.181 8        49.000
C25         2.000    23752341.784 7 123684684.11807      1141.722 7        43.500
C26        30.000    26154727.869 6 136194516.98206     -3478.208 6        41.000
C34         7.000    23524717.856 7 122499368.53307      2385.708 7        45.000
E02        26.000    24351268.842 6 127966781.00206     -1938.352 6        38.500    24351273.905 6  95559618.10306     -1447.128 6        37.500    24351269.692 6  98052471.40906     -1485.147 6        38.000    24351271.360 6  96806044.26306     -1466.132 6        40.750
E27        18.000    27661212.034 6 145360665.72406      2771.172 6        36.250    27661211.989 5 108548536.67205      2069.050 5        33.000    27661214.623 6 111380252.56206      2123.305 6        40.250    27661214.775 6 109964388.61206      2096.240 6        40.500
E34        29.000    24155489.617 8 126937956.80208      1647.557 8        48.500    24155494.429 7  94791352.47907      1230.361 7        46.250    24155490.999 7  97264153.72907      1262.416 7        46.000    24155492.533 8  96027750.60708      1246.398 8        49.000
G07        34.000    25249332.732 6 132686133.40806      1449.877 6        41.750    25249332.326 5        34.750    25249333.962 5 103391790.45905      1129.777 5        34.750    25249333.904 6 103391801.47406      1129.718 6        39.500
G08        14.000    23440064.755 6 123178366.26606      3217.535 6        41.500    23440064.331 5        33.750    23440066.427 5  95983154.97405      2507.163 5        33.750    23440068.171 6  95983165.97006      2507.132 6        38.750    23440068.806 8  91983872.86508      2402.681 8        49.750
G16         1.000    20393689.750 8 107169558.89808      -606.100 8        49.000    20393689.080 6        39.750    20393687.631 6  83508746.19606      -472.291 6        39.750
G26        13.000    21921764.931 7 115199646.02307     -2751.753 7        45.250    21921764.511 6        41.500    21921768.038 6  89765974.04606     -2144.225 6        41.500    21921766.831 6  89765984.04606     -2144.292 6        40.500    21921767.336 7  86025727.54607     -2054.859 7        46.500
G27        12.000    21044835.499 7 110591372.96007      2052.638 7        44.750    21044835.115 7        46.000    21044839.501 7  86175097.41307      1599.453 7        46.000    21044839.170 7  86175101.43507      1599.433 7        44.000    21044838.915 8  82584472.18008      1532.787 8        50.500
R09         8.000    23389796.835 6 124900234.54406      3954.098 6        40.000    23389805.644 6  97144639.47006      3075.529 6        37.500    23389785.105 5  93781923.95405      2969.238 5        32.750
R15        11.000    20890839.826 6 111634317.15106     -3447.027 6        39.500    20890847.647 7  86826713.45007     -2681.070 7        45.250
R16         4.000    19995388.506 7 106811781.83707       767.105 7        46.750    19995393.867 7  83075855.74807       596.560 7        45.500    19995379.759 7  80171948.10107       575.782 7        47.500
R18        22.000    20156879.637 8 107598792.32808      1907.793 8        49.750    20156883.657 7  83687969.14507      1483.729 7        42.250
S21         5.000    38584999.340 6 202765548.87806         3.634 6        40.500
S36        28.000    38464154.777 6 202130546.55106        -1.043 6        41.000
> 2026 04 16 10 55  5.0000000  0 19
C12        21.000    22122694.196 7 115198682.71407      1314.021 7        47.500    22122694.545 8  89078921.44808      1016.057 8        53.250
C24        23.000    23405021.679 8 121876095.35508     -2147.570 8        49.000
C25         2.000    23752122.491 7 123683541.63807      1142.317 7        43.500
C26        30.000    26155395.540 6 136197994.11606     -3477.013 6        41.000
C34         7.000    23524259.551 7 122496981.89207      2386.670 7        45.250
E02        26.000    24351637.175 6 127968718.50606     -1937.518 6        38.750    24351642.652 6  95561064.95806     -1446.838 6        37.750    24351638.194 6  98053955.99006     -1484.625 6        38.000    24351640.095 6  96807509.98006     -1465.730 6        41.000
E27        18.000    27660684.132 6 145357893.73006      2772.015 6        36.000    27660683.658 5 108546466.65805      2070.150 5        33.500    27660687.146 6 111378128.56206      2124.044 6        40.500    27660687.191 6 109962291.61006      2097.064 6        40.500
E34        29.000    24155176.384 8 126936308.48908      1648.250 8        48.750    24155180.749 7  94790121.59807      1230.822 7        46.500    24155177.399 7  97262890.74107      1262.920 7        46.000    24155178.906 8  96026503.67308      1246.886 8        49.250
G07        34.000    25249057.088 6 132684682.82406      1450.508 6        41.750    25249056.682 5        34.750    25249057.933 5 103390660.13505      1130.265 5        34.750    25249059.033 6 103390671.14906      1130.233 6        40.000
G08        14.000    23439452.008 6 123175147.83506      3218.453 6        41.500    23439451.584 5        34.000    23439453.967 5  95980647.10705      2507.883 5        34.000    23439455.036 6  95980658.11306      2507.809 6        39.000    23439456.551 8  91981469.50208      2403.366 8        50.000
G16         1.000    20393805.217 8 107170164.37508      -605.684 8        49.250    20393804.547 6        40.000    20393802.860 6  83509217.99606      -471.961 6        40.000
G26        13.000    21922288.365 7 115202397.06107     -2751.198 7        45.500    21922287.941 6        41.500    21922291.558 6  89768117.71106     -2143.795 6        41.500    21922291.800 6  89768127.70106     -2143.749 6        41.000    21922290.838 7  86027781.88807     -2054.409 7        46.500
G27        12.000    21044444.594 7 110589319.56307      2053.269 7        44.750    21044444.210 7        46.000    21044448.739 7  86173497.36507      1599.944 7        46.000    21044448.824 7  86173501.38507      1599.976 7        44.500    21044448.212 8  82582938.80408      1533.301 8        50.750
R09         8.000    23389056.388 6 124896279.54106      3954.967 6        40.000    23389065.080 6  97141563.37906      3075.992 6        38.000    23389044.471 5  93778954.33805      2969.542 5        32.750
R15        11.000    20891484.862 6 111637763.51806     -3446.693 6        39.750    20891492.871 7  86829393.95607     -2680.678 7        45.750
R16         4.000    19995244.935 7 106811014.19007       767.302 7        47.000    19995250.181 7  83075258.68907       596.776 7        45.750    19995236.108 7  80171371.91207       575.939 7        47.750
R18        22.000    20156522.082 8 107596883.77708      1908.384 8        49.750    20156525.673 7  83686484.70507      1484.364 7        42.250
S21         5.000    38584996.692 6 202765544.42006         4.593 6        40.250
S36        28.000    38464152.488 6 202130546.52506         0.056 6        41.000
> 2026 04 16 10 55  6.0000000  0 19
C12        21.000    22122441.835 7 115197369.10607      1312.579 7        47.000    22122442.314 8  89077905.67708      1015.041 8        52.750
C24        23.000    23405434.262 8 121878243.30408     -2148.949 8        48.750
C25         2.000    23751903.051 7 123682399.77907      1140.809 7        42.750
C26        30.000    26156063.377 6 136201471.38906     -3478.126 6        40.750
C34         7.000    23523801.437 7 122494595.55007      2385.470 7        44.750
E02        26.000    24352006.030 6 127970656.44806     -1938.987 6        38.000    24352011.221 6  95562512.11906     -1447.830 6        37.500    24352007.018 6  98055440.90206     -1485.563 6        37.750    24352008.945 6  96808976.01906     -1466.750 6        40.500
E27        18.000    27660156.928 5 145355121.92405      2770.860 5        35.750    27660156.579 5 108544396.80605      2068.953 5        33.250    27660159.798 6 111376004.72406      2123.108 6        40.000    27660159.968 6 109960194.75806      2096.122 6        40.250
E34        29.000    24154862.499 8 126934660.61008      1646.890 8        48.250    24154867.239 7  94788891.04007      1229.813 7        46.000    24154863.751 7  97261628.08107      1261.909 7        45.750    24154865.320 8  96025257.06408      1245.873 8        48.750
G07        34.000    25248780.701 6 132683232.83106      1448.807 6        41.500    25248780.290 5        34.500    25248782.016 5 103389530.26905      1128.941 5        34.500    25248781.113 6 103389541.28206      1129.002 6        40.000
G08        14.000    23438839.669 6 123171929.64106      3217.337 6        41.250    23438839.240 5        33.750    23438841.551 5  95978139.42505      2507.020 5        33.750    23438842.285 6  95978150.42506      2507.151 6        38.750    23438844.109 8  91979066.30608      2402.562 8        49.500
G16         1.000    20393920.450 8 107170770.60908      -607.424 8        48.750    20393919.780 6        39.750    20393918.224 6  83509690.38506      -473.315 6        39.750
G26        13.000    21922812.077 7 115205148.61007     -2752.654 7        45.250    21922811.657 6        41.250    21922815.172 6  89770261.77306     -2144.925 6        41.250    21922814.662 6  89770271.77206     -2144.888 6        40.750    21922814.434 7  86029836.61807     -2055.574 7        46.250
G27        12.000    21044053.694 7 110587266.63807      2051.994 7        44.250    21044053.314 7        45.750    21044058.067 7  86171897.68607      1598.954 7        45.750    21044057.826 7  86171901.70707      1598.902 7        44.250    21044057.531 8  82581405.78108      1532.295 8        50.250
R09         8.000    23388316.021 6 124892324.99606      3953.520 6        39.500    23388324.392 6  97138487.60206      3074.965 6        38.000    23388303.630 5  93775985.06605      2968.443 5        32.250
R15        11.000    20892129.952 6 111641210.55906     -3448.327 6        39.750    20892137.970 7  86832074.98907     -2681.954 7        45.750
R16         4.000    19995101.352 7 106810247.52407       765.386 7        46.750    19995106.391 7  83074662.38907       595.308 7        45.750    19995092.641 7  80170796.45407       574.493 7        47.250
R18        22.000    20156164.585 8 107594975.79608      1906.857 8        49.250    20156168.211 6  83685000.73006      1483.034 6        41.750
S21         5.000    38584995.753 6 202765540.03806         3.548 6        40.000
S36        28.000    38464151.880 6 202130546.58306        -0.807 6        40.250
> 2026 04 16 10 55  7.0000000  0 19
C12        21.000    22122189.618 7 115196055.98707      1313.786 7        47.750    22122190.137 8  89076890.29208      1015.886 8        53.250
C24        23.000    23405846.984 8 121880391.89108     -2147.990 8        49.250
C25         2.000    23751683.879 7 123681258.66507      1141.652 7        43.500
C26        30.000    26156731.259 6 136204948.89306     -3476.800 6        41.250
C34         7.000    23523343.293 7 122492209.60407      2386.686 7        45.500
E02        26.000    24352374.536 6 127972594.91106     -1937.597 6        38.750    24352380.421 6  95563959.68406     -1446.975 6        37.500    24352376.244 6  98056926.24406     -1484.972 6        38.000    24352377.809 6  96810442.47206     -1465.953 6        40.750
E27        18.000    27659629.585 6 145352350.44106      2772.341 6        36.000    27659629.223 5 108542327.19405      2070.216 5        34.000    27659632.299 6 111373881.11006      2124.244 6        40.250    27659632.326 6 109958098.15106      2097.208 6        40.750
E34        29.000    24154549.146 8 126933013.28408      1648.001 8        49.000    24154553.639 7  94787660.88707      1230.699 7        46.500    24154550.089 7  97260365.84207      1262.783 7        46.000    24154551.891 8  96024010.86908      1246.733 8        49.250
G07        34.000    25248505.070 7 132681783.53107      1449.965 7        42.000    25248504.659 5        34.750    25248506.238 5 103388400.94505      1129.843 5        34.750    25248506.980 6 103388411.96306      1129.755 6        40.250
G08        14.000    23438227.468 7 123168711.78707      3218.623 7        42.000    23438227.044 5        34.000    23438229.194 5  95975632.00805      2508.013 5        34.000    23438229.806 6  95975643.00906      2508.198 6        39.500    23438231.752 8  91976663.36308      2403.588 8        50.000
G16         1.000    20394036.109 8 107171377.70808      -606.553 8        49.250    20394035.439 6        39.750    20394033.766 6  83510163.44606      -472.632 6        39.750
G26        13.000    21923336.098 7 115207900.76907     -2751.549 7        45.750    21923335.674 6        41.500    21923338.906 6  89772406.31206     -2144.061 6        41.500    21923339.326 6  89772416.31006     -2144.081 6        41.000    21923337.967 7  86031891.80507     -2054.728 7        46.500
G27        12.000    21043663.241 7 110585214.29007      2053.024 7        44.750    21043662.866 7        45.750    21043667.507 7  86170298.45407      1599.758 7        45.750    21043667.484 7  86170302.48207      1599.720 7        44.500    21043667.042 8  82579873.18208      1533.094 8        50.750
R09         8.000    23387575.507 6 124888371.01406      3954.573 6        40.000    23387584.276 6  97135412.27806      3076.007 6        38.500    23387563.156 5  93773016.14605      2969.771 5        32.750
R15        11.000    20892775.185 6 111644658.38906     -3447.170 6        40.500    20892783.350 7  86834756.65207     -2681.191 7        46.000
R16         4.000    19994958.032 7 106809481.95107       765.993 7        47.250    19994963.089 7  83074066.94807       595.731 7        46.000    19994949.366 7  80170221.82407       574.948 7        47.750
R18        22.000    20155807.248 8 107593068.52108      1907.860 8        49.750    20155810.785 7  83683517.29407      1483.810 7        42.000
S21         5.000    38584994.577 6 202765535.85906         4.910 6        40.250
S36        28.000    38464154.160 6 202130546.79106         0.626 6        41.000
> 2026 04 16 10 55  8.0000000  0 19
C12        21.000    22121937.508 7 115194742.87307      1312.935 7        47.750    22121937.973 8  89075874.91208      1015.231 8        53.250
C24        23.000    23406259.670 8 121882540.60308     -2148.920 8        49.250
C25         2.000    23751464.805 7 123680117.77107      1140.685 7        43.500
C26        30.000    26157399.118 6 136208426.10806     -3477.241 6        41.250
C34         7.000    23522885.027 7 122489823.55807      2385.904 7        45.500
E02        26.000    24352743.856 6 127974533.42806     -1938.709 6        38.750    24352748.959 6  95565407.26706     -1447.740 6        37.750    24352744.822 6  98058411.58506     -1485.474 6        37.750    24352746.817 6  96811908.93606     -1466.582 6        40.750
E27        18.000    27659102.895 6 145349578.74906      2771.920 6        36.000    27659101.500 5 108540257.43305      2069.596 5        33.500    27659104.706 6 111371757.35206      2123.801 6        40.500    27659105.037 6 109956001.39006      2096.711 6        40.750
E34        29.000    24154235.685 8 126931366.00008      1647.058 8        48.750    24154240.183 7  94786430.77707      1230.009 7        46.500    24154236.727 7  97259103.63907      1262.095 7        46.000    24154238.399 8  96022764.71308      1246.023 8        49.250
G07        34.000    25248229.162 7 132680334.42607      1448.927 7        42.250    25248228.751 5        34.750    25248230.477 5 103387271.77405      1129.026 5        34.750    25248229.940 6 103387282.78906      1128.962 6        40.250
G08        14.000    23437615.526 7 123165493.76807      3217.986 7        42.000    23437615.102 5        34.250    23437616.814 5  95973124.46305      2507.516 5        34.250    23437617.941 6  95973135.47106      2507.615 6        39.250    23437619.497 8  91974260.29908      2403.084 8        50.000
G16         1.000    20394151.450 8 107171985.17708      -607.788 8        49.250    20394150.775 6        40.000    20394149.371 6  83510636.79906      -473.601 6        40.000
G26        13.000    21923859.112 7 115210653.06507     -2752.502 7        45.750    21923858.688 6        41.750    21923862.667 6  89774550.95406     -2144.807 6        41.750    21923862.672 6  89774560.95706     -2144.909 6        41.250    21923861.540 7  86033947.08907     -2055.508 7        46.500
G27        12.000    21043272.698 7 110583162.03007      2052.079 7        44.750    21043272.327 7        46.000    21043276.964 7  86168699.29207      1599.024 7        46.000    21043276.808 7  86168703.31107      1599.041 7        44.500    21043276.463 8  82578340.65308      1532.352 8        50.750
R09         8.000    23386835.033 6 124884416.99606      3953.768 6        40.000    23386843.601 6  97132336.93406      3075.344 6        38.500    23386822.790 5  93770047.26105      2968.937 5        32.500
R15        11.000    20893420.284 6 111648106.54806     -3448.489 6        40.750    20893428.592 7  86837438.54507     -2682.172 7        46.000
R16         4.000    19994814.801 7 106808716.99407       764.498 7        47.250    19994820.064 7  83073471.97807       594.552 7        46.000    19994806.202 8  80169647.65008       573.746 8        48.000
R18        22.000    20155449.832 8 107591161.45408      1906.800 8        49.750    20155453.512 7  83682034.02007      1483.054 7        42.000
S21         5.000    38584993.120 6 202765531.36006         4.315 6        40.500
S36        28.000    38464153.583 6 202130546.65806         0.108 6        41.000
> 2026 04 16 10 55  9.0000000  0 19
C12        21.000    22121685.536 7 115193430.15107      1312.558 7        47.500    22121685.881 8  89074859.83308      1014.917 8        53.000
C24        23.000    23406672.481 8 121884689.81608     -2149.459 8        49.250
C25         2.000    23751246.049 7 123678977.49707      1139.899 7        43.500
C26        30.000    26158067.004 6 136211903.42306     -3477.386 6        40.750
C34         7.000    23522426.802 7 122487437.77807      2385.627 7        45.250
E02        26.000    24353112.962 6 127976472.33106     -1939.066 6        38.500    24353117.724 6  95566855.15106     -1448.138 6        37.500    24353113.982 6  98059897.22306     -1485.632 6        38.000    24353115.726 6  96813375.69606     -1466.871 6        40.750
E27        18.000    27658574.586 6 145346807.26006      2771.306 6        36.000    27658574.282 5 108538187.80305      2069.534 5        33.500    27658577.649 6 111369633.75006      2123.441 6        40.250    27658577.707 6 109953904.77406      2096.492 6        40.500
E34        29.000    24153922.322 8 126929719.13908      1646.650 8        48.750    24153926.924 7  94785200.98507      1229.542 7        46.250    24153923.449 7  97257841.76507      1261.739 7        46.000    24153924.987 8  96021518.88008      1245.640 8        49.250
G07        34.000    25247953.456 7 132678885.89907      1448.176 7        42.250    25247953.045 5        35.000    25247954.842 5 103386143.05105      1128.448 5        35.000    25247955.092 6 103386154.05506      1128.563 6        40.000
G08        14.000    23437002.556 7 123162275.96307      3217.709 7        42.250    23437002.132 5        34.250    23437004.470 5  95970617.08805      2507.305 5        34.250    23437005.490 6  95970628.09306      2507.374 6        39.000    23437007.238 8  91971857.39508      2402.794 8        50.000
G16         1.000    20394267.484 8 107172593.38108      -608.588 8        49.250    20394266.814 6        40.000    20394265.114 6  83511110.72306      -474.221 6        40.000
G26        13.000    21924383.540 7 115213405.84207     -2753.023 7        45.750    21924383.120 6        41.750    21924386.522 6  89776695.97406     -2145.207 6        41.750    21924386.616 6  89776705.97106     -2145.120 6        41.000    21924385.462 7  86036002.74307     -2055.869 7        46.500
G27        12.000    21042882.482 7 110581110.22107      2051.557 7        44.750    21042882.116 7        46.000    21042886.502 7  86167100.47907      1598.617 7        46.000    21042887.030 7  86167104.49607      1598.562 7        44.250    21042886.064 8  82576808.44908      1532.018 8        50.750
R09         8.000    23386094.792 6 124880463.37006      3953.255 6        40.000    23386103.610 6  97129261.89606      3074.963 6        39.000    23386082.401 5  93767078.69005      2968.447 5        32.500
R15        11.000    20894066.241 6 111651555.37206     -3449.183 6        40.750    20894073.941 7  86840120.96707     -2682.673 7        46.000
R16         4.000    19994671.879 7 106807953.04107       763.438 7        47.250    19994677.249 7  83072877.78607       593.825 7        46.000    19994663.209 7  80169074.22807       573.093 7        47.750
R18        22.000    20155092.674 8 107589254.92608      1906.239 8        49.500    20155096.319 7  83680551.16007      1482.742 7        42.000
S21         5.000    38584993.053 6 202765526.92506         4.430 6        40.500
S36        28.000    38464154.518 6 202130546.64206         0.152 6        41.000
> 2026 04 16 10 55 10.0000000  0 19
C12        21.000    22121433.493 7 115192117.36107      1312.377 7        47.500    22121433.815 8  89073844.70108      1014.844 8        53.000
C24        23.000    23407085.279 8 121886839.07108     -2149.680 8        49.250
C25         2.000    23751027.212 7 123677837.36507      1139.533 7        43.500
C26        30.000    26158734.684 6 136215380.38906     -3477.271 6        41.000
C34         7.000    23521968.600 7 122485051.82207      2385.619 7        45.500
E02        26.000    24353481.576 6 127978411.18006     -1939.117 6        38.500    24353486.924 6  95568302.99606     -1448.267 6        37.500    24353482.698 6  98061382.83306     -1485.761 6        38.000    24353484.590 6  96814842.42206     -1467.011 6        40.750
E27        18.000    27658046.832 6 145344035.49606      2771.385 6        36.000    27658046.984 5 108536117.95205      2069.788 5        33.750    27658050.060 6 111367509.91306      2123.616 6        40.500    27658050.230 6 109951807.93406      2096.669 6        40.750
E34        29.000    24153608.826 8 126928072.23908      1646.468 8        49.000    24153613.476 7  94783971.15907      1229.506 7        46.250    24153610.073 7  97256579.84907      1261.609 7        46.250    24153611.612 8  96020273.00908      1245.548 8        49.250
G07        34.000    25247677.793 7 132677437.46907      1447.936 7        42.250    25247677.382 5        35.000    25247679.233 5 103385014.40605      1128.262 5        35.000    25247679.725 6 103385025.42706      1128.081 6        40.250
G08        14.000    23436390.275 7 123159057.91607      3217.758 7        42.250    23436389.851 5        34.500    23436392.077 5  95968109.52205      2507.344 5        34.500    23436393.231 6  95968120.52506      2507.294 6        39.250    23436394.876 8  91969454.31508      2402.775 8        50.000
G16         1.000    20394383.017 8 107173201.85908      -609.064 8        49.500    20394382.347 6        40.250    20394380.911 6  83511584.86106      -474.594 6        40.250
G26        13.000    21924907.770 7 115216158.66407     -2753.333 7        45.750    21924907.350 6        41.750    21924910.395 6  89778841.03006     -2145.449 6        41.750    21924909.993 6  89778851.03806     -2145.480 6        41.250    21924909.300 7  86038058.41807     -2056.095 7        46.500
G27        12.000    21042491.336 7 110579058.38307      2051.370 7        44.500    21042490.970 7        46.000    21042496.031 7  86165501.64607      1598.469 7        46.000    21042496.273 7  86165505.66407      1598.525 7        44.250    21042495.526 8  82575276.23808      1531.882 8        50.750
R09         8.000    23385354.336 6 124876509.68206      3953.337 6        40.000    23385363.467 6  97126186.80606      3074.874 6        39.000    23385341.914 5  93764110.02505      2968.615 5        32.250
R15        11.000    20894711.286 6 111655004.36906     -3449.586 6        40.750    20894719.531 7  86842803.52607     -2682.990 7        46.250
R16         4.000    19994528.818 7 106807189.60607       762.719 7        47.500    19994534.350 7  83072284.00707       593.161 7        46.250    19994520.264 8  80168501.20708       572.451 8        48.000
R18        22.000    20154735.535 8 107587348.47608      1905.927 8        49.500    20154739.116 7  83679068.37407      1482.397 7        42.000
S21         5.000    38584994.470 6 202765522.10606         4.647 6        40.250
S36        28.000    38464154.308 6 202130546.26406         0.259 6        41.000
> 2026 04 16 10 55 11.0000000  0 19
C12        21.000    22121181.576 7 115190804.99207      1312.347 7        47.750    22121181.808 8  89072829.89208      1014.721 8        53.250
C24        23.000    23407498.202 8 121888988.87308     -2149.978 8        49.500
C25         2.000    23750808.406 7 123676697.87907      1139.290 7        43.500
C26        30.000    26159402.289 6 136218857.50906     -3477.198 6        41.000
C34         7.000    23521510.308 7 122482666.17507      2385.709 7        45.500
E02        26.000    24353850.257 6 127980350.48906     -1939.504 6        38.500    24353856.110 6  95569751.17706     -1448.351 6        37.750    24353851.361 6  98062868.80006     -1486.041 6        38.000    24353853.637 6  96816309.49606     -1467.154 6        40.750
E27        18.000    27657519.037 6 145341263.92106      2771.729 6        36.000    27657519.480 5 108534048.30705      2069.536 5        33.500    27657522.462 6 111365386.25306      2123.723 6        40.250    27657522.811 6 109949711.27606      2096.641 6        40.500
E34        29.000    24153295.745 8 126926425.80708      1646.329 8        49.000    24153300.279 7  94782741.68207      1229.355 7        46.250    24153296.729 7  97255318.30107      1261.441 7        46.250    24153298.352 8  96019027.49508      1245.411 8        49.250
G07        34.000    25247402.382 7 132675989.66107      1447.587 7        42.250    25247401.971 5        35.250    25247403.741 5 103383886.24305      1127.989 5        35.250    25247403.276 6 103383897.24806      1128.105 6        40.250
G08        14.000    23435777.649 7 123155840.12107      3217.701 7        42.500    23435777.225 5        34.500    23435779.733 5  95965602.15205      2507.292 5        34.500    23435780.247 6  95965613.15706      2507.361 6        39.500    23435782.662 8  91967051.41708      2402.838 8        50.250
G16         1.000    20394499.190 8 107173811.11908      -609.501 8        49.500    20394498.520 6        40.250    20394496.856 6  83512059.60806      -474.936 6        40.250
G26        13.000    21925430.803 7 115218912.03007     -2753.578 7        45.750    21925430.379 7        42.000    21925434.371 7  89780986.51107     -2145.647 7        42.000    21925434.420 6  89780996.52206     -2145.668 6        41.500    21925433.070 7  86040114.50307     -2056.275 7        46.250
G27        12.000    21042101.437 7 110577007.05307      2051.219 7        44.250    21042101.075 7        46.000    21042105.654 7  86163903.20807      1598.350 7        46.000    21042105.649 7  86163907.23307      1598.384 7        44.250    21042105.175 8  82573744.40108      1531.796 8        51.000
R09         8.000    23384614.533 6 124872556.47506      3953.086 6        40.000    23384622.966 6  97123112.09106      3074.534 6        39.250    23384601.489 5  93761141.78505      2967.989 5        32.500
R15        11.000    20895356.608 6 111658454.06106     -3450.017 6        41.000    20895365.140 7  86845486.61307     -2683.259 7        46.000
R16         4.000    19994386.312 7 106806427.17707       762.038 7        47.750    19994391.647 7  83071691.01007       592.612 7        46.250    19994377.534 7  80167928.93007       572.030 7        47.750
R18        22.000    20154378.413 8 107585442.63808      1905.690 8        49.500    20154382.335 7  83677586.06007      1482.065 7        42.250
S21         5.000    38584993.070 6 202765517.41906         4.644 6        40.500
S36        28.000    38464156.722 6 202130546.04706         0.083 6        41.000
> 2026 04 16 10 55 12.0000000  0 19
C12        21.000    22120929.823 7 115189493.49507      1311.355 7        47.750    22120929.966 8  89071815.75708      1014.072 8        53.000
C24        23.000    23407911.232 8 121891139.68408     -2151.061 8        49.250
C25         2.000    23750589.829 7 123675559.48607      1138.164 7        43.250
C26        30.000    26160070.005 6 136222335.20506     -3477.687 6        40.750
C34         7.000    23521052.369 7 122480281.30507      2384.729 7        45.500
E02        26.000    24354219.554 6 127982290.69706     -1940.456 6        38.250    24354224.970 6  95571200.02406     -1448.750 6        37.250    24354220.695 6  98064355.46106     -1486.682 6        37.750    24354222.823 6  96817777.25506     -1467.770 6        40.500
E27        18.000    27656991.641 5 145338493.07105      2770.597 5        35.750    27656992.486 5 108531979.15105      2069.360 5        33.500    27656995.625 6 111363263.11506      2123.259 6        40.250    27656995.437 6 109947615.13306      2096.220 6        40.500
E34        29.000    24152982.620 8 126924780.29808      1645.323 8        48.500    24152987.002 7  94781512.89407      1228.678 7        46.250    24152983.581 7  97254057.46207      1260.757 7        46.250    24152985.191 8  96017782.68308      1244.706 8        49.250
G07        34.000    25247126.822 7 132674542.91407      1446.462 7        42.000    25247126.411 5        35.000    25247128.441 5 103382758.90805      1127.115 5        35.000    25247129.076 6 103382769.92506      1127.183 6        40.250
G08        14.000    23435165.985 7 123152623.03507      3217.072 7        42.250    23435165.561 5        34.750    23435167.532 5  95963095.33705      2506.805 5        34.750    23435168.950 6  95963106.34006      2506.826 6        39.250    23435170.492 8  91964649.04808      2402.404 8        50.250
G16         1.000    20394615.747 8 107174421.62408      -610.816 8        49.500    20394615.081 6        40.250    20394613.033 6  83512535.32806      -475.954 6        40.250
G26        13.000    21925955.369 7 115221666.38207     -2754.594 7        45.500    21925954.945 6        41.750    21925958.530 6  89783132.75906     -2146.436 6        41.750    21925958.369 6  89783142.77906     -2146.460 6        41.500    21925957.291 7  86042171.32307     -2056.963 7        46.250
G27        12.000    21041710.917 7 110574956.67207      2050.302 7        44.250    21041710.555 7        46.000    21041715.465 7  86162305.51107      1597.640 7        46.000    21041715.147 7  86162309.53107      1597.698 7        44.250    21041714.874 8  82572213.28108      1531.065 8        50.750
R09         8.000    23383874.264 6 124868604.18306      3952.228 6        39.750    23383882.895 6  97120038.08406      3073.948 6        39.250    23383861.136 5  93758174.16005      2967.912 5        32.000
R15        11.000    20896001.733 6 111661904.89706     -3451.117 6        41.000    20896010.775 7  86848170.59607     -2684.236 7        46.000
R16         4.000    19994244.065 7 106805666.22507       760.579 7        47.750    19994249.373 7  83071099.15107       591.555 7        46.250    19994235.064 7  80167357.76707       570.940 7        47.750
R18        22.000    20154021.551 8 107583537.89408      1904.542 8        49.250    20154025.419 7  83676104.59107      1481.313 7        42.000
S21         5.000    38584993.254 6 202765513.28006         4.145 6        40.250
S36        28.000    38464158.994 6 202130546.46006        -0.546 6        41.250
> 2026 04 16 10 55 13.0000000  0 19
C12        21.000    22120678.129 7 115188182.32407      1311.948 7        47.000    22120678.178 8  89070801.87908      1014.520 8        53.000
C24        23.000    23408324.361 8 121893290.92308     -2150.586 8        48.750
C25         2.000    23750371.480 7 123674421.63807      1138.570 7        42.750
C26        30.000    26160738.186 6 136225812.92806     -3476.714 6        40.250
C34         7.000    23520594.479 7 122477896.63707      2385.559 7        44.750
E02        26.000    24354589.036 6 127984231.24406     -1939.512 6        37.500    24354594.062 6  95572649.14406     -1448.492 6        37.250    24354590.261 6  98065842.37906     -1486.335 6        38.000    24354592.090 6  96819245.26906     -1467.400 6        40.500
E27        18.000    27656464.164 5 145335722.31505      2771.673 5        35.000    27656465.022 5 108529910.10005      2069.796 5        33.000    27656468.040 6 111361140.07406      2123.865 6        40.250    27656468.121 6 109945519.08606      2096.816 6        40.250
E34        29.000    24152669.553 8 126923135.15308      1645.841 8        48.000    24152673.917 7  94780284.37207      1229.104 7        46.250    24152670.581 7  97252796.89707      1261.152 7        46.250    24152672.173 8  96016538.13908      1245.111 8        49.000
G07        34.000    25246851.652 6 132673096.68406      1446.914 6        41.250    25246851.237 5        34.750    25246853.249 5 103381631.97805      1127.460 5        34.750    25246853.843 6 103381642.99306      1127.539 6        40.000
G08        14.000    23434553.551 6 123149406.11306      3217.685 6        41.750    23434553.127 5        34.750    23434555.358 5  95960588.64705      2507.284 5        34.750    23434556.547 6  95960599.64206      2507.377 6        39.250    23434558.403 8  91962246.80008      2402.940 8        50.000
G16         1.000    20394731.728 8 107175032.79708      -610.570 8        48.750    20394731.062 6        40.000    20394729.345 6  83513011.56606      -475.772 6        40.000
G26        13.000    21926479.648 7 115224421.17107     -2754.055 7        44.750    21926479.219 6        41.500    21926482.779 6  89785279.34606     -2146.016 6        41.500    21926483.320 6  89785289.35906     -2146.020 6        41.500    21926481.477 7  86044228.47607     -2056.613 7        46.250
G27        12.000    21041320.831 7 110572906.68007      2050.714 7        43.750    21041320.478 7        45.750    21041325.347 7  86160708.11807      1597.955 7        45.750    21041325.409 7  86160712.14207      1597.967 7        44.000    21041324.828 8  82570682.44408      1531.401 8        50.750
R09         8.000    23383133.875 6 124864652.26806      3952.726 6        38.750    23383143.364 6  97116964.37206      3074.366 6        39.250    23383121.194 5  93755206.84405      2967.925 5        32.000
R15        11.000    20896647.896 6 111665356.29806     -3450.649 6        40.500    20896656.643 7  86850855.01707     -2683.846 7        45.750
R16         4.000    19994102.176 7 106804906.17307       760.603 7        47.000    19994107.270 7  83070508.00307       591.585 7        46.250    19994092.822 7  80166787.28207       570.920 7        47.500
R18        22.000    20153664.840 8 107581633.65508      1904.984 8        48.500    20153668.681 6  83674623.52106      1481.844 6        41.750
S21         5.000    38584991.912 6 202765509.17906         4.874 6        39.500
S36        28.000    38464158.690 6 202130546.90706         0.387 6        40.500
> 2026 04 16 10 55 14.0000000  0 19
C12        21.000    22120426.363 7 115186871.31207      1310.874 7        47.750    22120426.413 8  89069788.12308      1013.598 8        53.250
C24        23.000    23408737.561 8 121895442.43708     -2151.735 8        49.500
C25         2.000    23750153.077 7 123673284.17907      1137.329 7        43.500
C26        30.000    26161406.385 6 136229290.54906     -3477.695 6        41.000
C34         7.000    23520136.410 7 122475512.00907      2384.611 7        45.500
E02        26.000    24354958.602 6 127986171.97706     -1940.828 6        38.250    24354963.449 6  95574098.38206     -1449.486 6        37.250    24354959.461 6  98067329.42006     -1487.064 6        38.000    24354961.509 6  96820713.41006     -1468.295 6        40.500
E27        18.000    27655936.418 5 145332951.51005      2770.952 5        35.500    27655937.057 5 108527840.98905      2069.326 5        33.250    27655940.501 6 111359017.00306      2123.137 6        40.500    27655941.051 6 109943422.99306      2096.204 6        40.500
E34        29.000    24152356.570 8 126921490.20008      1644.719 8        49.000    24152361.091 7  94779056.00007      1228.167 7        46.250    24152357.567 7  97251536.47307      1260.275 7        46.250    24152359.119 8  96015293.74108      1244.216 8        49.250
G07        34.000    25246576.173 7 132671650.78007      1445.731 7        42.000    25246575.758 5        34.500    25246578.123 5 103380505.30305      1126.546 5        34.500    25246578.892 6 103380516.31506      1126.574 6        40.250
G08        14.000    23433941.216 7 123146189.15407      3216.967 7        42.500    23433940.796 5        34.750    23433943.175 5  95958081.93005      2506.727 5        34.750    23433943.170 6  95958092.93506      2506.614 6        39.000    23433946.381 8  91959844.53708      2402.136 8        50.250
G16         1.000    20394848.191 8 107175644.48308      -611.991 8        49.750    20394847.521 6        39.750    20394845.763 6  83513488.20406      -476.878 6        39.750
G26        13.000    21927003.553 7 115227176.23307     -2755.317 7        45.250    21927003.129 6        41.500    21927007.085 6  89787426.15006     -2146.996 6        41.500    21927006.920 7  89787436.15507     -2146.892 7        42.000    21927005.891 7  86046285.82107     -2057.453 7        46.250
G27        12.000    21040930.784 7 110570856.91307      2049.590 7        44.250    21040930.431 7        45.750    21040935.274 7  86159110.89907      1597.079 7        45.750    21040935.229 7  86159114.93107      1597.013 7        44.250    21040934.746 8  82569151.77108      1530.529 8        51.000
R09         8.000    23382393.384 6 124860700.54006      3951.527 6        39.500    23382403.320 6  97113890.80306      3073.418 6        39.500    23382381.015 5  93752239.65805      2967.126 5        32.500
R15        11.000    20897294.126 6 111668808.13206     -3452.165 6        41.500    20897302.591 7  86853539.76607     -2684.931 7        45.750
R16         4.000    19993960.091 7 106804146.87807       758.893 7        47.750    19993964.969 7  83069917.44507       590.235 7        46.500    19993950.732 7  80166217.36507       569.547 7        47.750
R18        22.000    20153308.085 8 107579729.73408      1903.676 8        49.250    20153311.837 7  83673142.70107      1480.573 7        42.000
S21         5.000    38584989.976 6 202765504.93006         4.286 6        40.250
S36        28.000    38464160.760 6 202130547.15306        -0.176 6        41.500
> 2026 04 16 10 55 15.0000000  0 19
C12        21.000    22120174.700 7 115185560.98507      1310.490 7        47.750    22120174.817 8  89068774.89308      1013.335 8        53.250
C24        23.000    23409150.833 8 121897594.74608     -2152.248 8        49.500
C25         2.000    23749934.960 7 123672147.62907      1136.663 7        43.750
C26        30.000    26162074.566 6 136232768.54106     -3477.522 6        41.000
C34         7.000    23519678.498 7 122473127.96407      2384.301 7        45.500
E02        26.000    24355327.332 6 127988113.40706     -1941.151 6        38.250    24355332.845 6  95575548.15206     -1449.576 6        37.250    24355328.821 6  98068817.01606     -1487.373 6        37.750    24355330.815 6  96822182.09206     -1468.508 6        40.500
E27        18.000    27655409.880 5 145330181.21805      2770.464 5        35.500    27655410.654 5 108525772.24505      2068.957 5        33.500    27655413.556 6 111356894.30806      2122.879 6        40.500    27655413.828 6 109941327.27606      2095.907 6        40.500
E34        29.000    24152043.588 8 126919845.96008      1644.378 8        49.000    24152048.198 7  94777828.16007      1227.976 7        46.250    24152044.737 7  97250276.61107      1259.958 7        46.250    24152046.235 8  96014049.89008      1243.970 8        49.250
G07        34.000    25246301.169 6 132670205.76806      1445.009 6        41.750    25246300.758 5        34.750    25246303.167 5 103379379.32005      1125.983 5        34.750    25246303.556 6 103379390.32906      1126.061 6        40.250
G08        14.000    23433329.252 7 123142972.73407      3216.565 7        42.750    23433328.828 5        34.750    23433331.104 5  95955575.63005      2506.408 5        34.750    23433331.283 6  95955586.62806      2506.535 6        39.250    23433334.310 8  91957442.66208      2401.962 8        50.250
G16         1.000    20394965.075 8 107176257.20608      -612.717 8        49.750    20394964.405 6        40.000    20394962.374 6  83513965.65106      -477.441 6        40.000
G26        13.000    21927528.159 7 115229932.09407     -2755.811 7        45.250    21927527.730 6        41.500    21927531.544 6  89789573.57106     -2147.380 6        41.500    21927532.072 7  89789583.58607     -2147.418 7        42.000    21927530.261 7  86048343.76907     -2057.934 7        46.000
G27        12.000    21040540.564 7 110568807.88907      2049.234 7        44.500    21040540.216 7        45.750    21040545.344 7  86157514.26007      1596.805 7        45.750    21040546.395 7  86157518.29407      1596.748 7        44.250    21040544.709 8  82567621.66708      1530.185 8        51.000
R09         8.000    23381653.661 6 124856749.52606      3951.120 6        39.750    23381663.025 6  97110817.79306      3073.105 6        40.000    23381641.346 5  93749272.98705      2966.842 5        32.250
R15        11.000    20897940.665 6 111672260.92806     -3452.741 6        41.750    20897948.588 7  86856225.28707     -2685.519 7        45.750
R16         4.000    19993818.139 8 106803388.87608       757.856 8        48.000    19993822.991 7  83069327.89007       589.448 7        46.500    19993808.802 7  80165648.41607       568.819 7        47.750
R18        22.000    20152951.500 8 107577826.66708      1903.134 8        49.250    20152955.306 7  83671662.54507      1480.259 7        42.250
S21         5.000    38584989.064 6 202765501.06806         4.278 6        40.500
S36        28.000    38464162.254 6 202130547.74206        -0.459 6        41.250
> 2026 04 16 10 55 16.0000000  0 19
C12        21.000    22119923.033 7 115184250.54707      1310.240 7        47.750    22119923.194 8  89067761.57908      1013.193 8        53.250
C24        23.000    23409564.212 8 121899747.06108     -2152.582 8        49.500
C25         2.000    23749716.722 7 123671011.18007      1136.063 7        44.000
C26        30.000    26162742.492 6 136236246.15706     -3477.655 6        41.250
C34         7.000    23519220.542 7 122470743.68507      2384.211 7        45.500
E02        26.000    24355696.952 6 127990054.76406     -1941.628 6        38.250    24355702.416 6  95576997.85406     -1449.737 6        37.250    24355698.074 6  98070304.52806     -1487.631 6        38.000    24355700.323 6  96823650.70006     -1468.688 6        40.500
E27        18.000    27654882.801 5 145327410.58005      2770.519 5        35.250    27654883.127 5 108523703.26705      2068.760 5        33.000    27654886.217 6 111354771.35106      2122.864 6        40.500    27654886.575 6 109939231.30806      2095.829 6        40.500
E34        29.000    24151730.834 8 126918201.65208      1644.067 8        49.000    24151735.176 7  94776600.26707      1227.793 7        46.250    24151732.041 7  97249016.68407      1259.779 7        46.250    24151733.338 8  96012805.97908      1243.776 8        49.250
G07        34.000    25246026.182 6 132668760.81506      1444.692 6        41.750    25246025.771 5        34.750    25246028.203 5 103378253.38105      1125.737 5        34.750    25246028.507 6 103378264.39006      1125.699 6        40.250
G08        14.000    23432717.772 7 123139756.01007      3216.656 7        42.750    23432717.352 5        35.000    23432718.974 5  95953069.09305      2506.476 5        35.000    23432719.538 6  95953080.09206      2506.570 6        39.500    23432722.257 8  91955040.56708      2402.013 8        50.500
G16         1.000    20395081.619 8 107176870.17308      -613.359 8        49.750    20395080.953 6        40.000    20395079.021 6  83514443.28706      -477.941 6        40.000
G26        13.000    21928052.166 7 115232687.94607     -2756.111 7        45.000    21928051.737 6        41.750    21928056.003 6  89791720.98606     -2147.622 6        41.750    21928056.584 7  89791731.00107     -2147.632 7        42.250    21928054.697 7  86050401.70907     -2058.114 7        46.250
G27        12.000    21040151.032 7 110566758.84007      2048.786 7        44.500    21040150.688 7        45.750    21040155.409 7  86155917.60107      1596.454 7        45.750    21040155.481 7  86155921.62307      1596.488 7        44.250    21040154.801 8  82566091.52308      1529.986 8        51.000
R09         8.000    23380913.751 6 124852798.42406      3950.808 6        39.750    23380922.667 6  97107744.70706      3072.935 6        40.000    23380901.230 5  93746306.31805      2966.347 5        32.250
R15        11.000    20898587.024 7 111675713.91207     -3453.364 7        42.250    20898594.537 7  86858910.93007     -2685.885 7        45.750
R16         4.000    19993676.232 8 106802631.35408       757.007 8        48.000    19993681.245 7  83068738.70807       588.830 7        46.500    19993667.020 8  80165079.82408       568.323 8        48.000
R18        22.000    20152594.960 8 107575923.66108      1902.725 8        49.250    20152598.980 7  83670182.43107      1479.885 7        42.000
S21         5.000    38584989.328 6 202765496.79706         4.227 6        40.250
S36        28.000    38464160.908 6 202130547.96206        -0.248 6        41.500
> 2026 04 16 10 55 17.0000000  0 19
C12        21.000    22119671.460 7 115182940.46207      1310.573 7        47.750    22119671.688 8  89066748.54308      1013.378 8        53.500
C24        23.000    23409977.667 8 121901899.86008     -2152.444 8        49.750
C25         2.000    23749498.659 7 123669875.31807      1136.220 7        44.000
C26        30.000    26163410.508 6 136239723.85706     -3477.257 6        41.250
C34         7.000    23518762.804 7 122468359.67007      2384.519 7        45.750
E02        26.000    24356066.308 6 127991996.47706     -1941.294 6        38.500    24356071.821 6  95578447.85006     -1449.916 6        37.250    24356067.851 6  98071792.34606     -1487.510 6        38.000    24356069.827 6  96825119.60606     -1468.687 6        40.500
E27        18.000    27654355.516 5 145324640.11405      2771.120 5        35.250    27654356.339 5 108521634.42005      2069.206 5        33.500    27654358.955 6 111352648.53706      2123.204 6        40.500    27654359.465 6 109937135.47606      2096.166 6        40.500
E34        29.000    24151418.089 8 126916557.74908      1644.293 8        49.250    24151422.578 7  94775372.67907      1227.879 7        46.500    24151419.153 7  97247757.07207      1259.924 7        46.250    24151420.557 8  96011562.38208      1243.876 8        49.250
G07        34.000    25245751.915 7 132667316.41507      1444.716 7        42.000    25245751.504 5        34.750    25245753.350 5 103377127.87405      1125.750 5        34.750    25245754.710 6 103377138.88206      1125.767 6        40.000
G08        14.000    23432105.436 7 123136539.48407      3216.988 7        42.750    23432105.012 5        35.000    23432106.885 5  95950562.71105      2506.736 5        35.000    23432107.408 6  95950573.72206      2506.798 6        39.500    23432110.239 8  91952638.62108      2402.313 8        50.500
G16         1.000    20395198.543 8 107177483.85608      -613.414 8        50.000    20395197.877 6        40.000    20395195.815 6  83514921.48306      -477.991 6        40.000
G26        13.000    21928576.759 7 115235444.27707     -2755.896 7        45.250    21928576.330 6        41.750    21928580.560 6  89793868.77706     -2147.453 6        41.750    21928580.797 7  89793878.79407     -2147.563 7        42.250    21928579.151 7  86052460.01507     -2058.058 7        46.250
G27        12.000    21039760.878 7 110564710.21007      2049.103 7        44.500    21039760.543 7        46.000    21039765.555 7  86154321.26907      1596.696 7        46.000    21039765.877 7  86154325.29207      1596.680 7        44.250    21039764.943 8  82564561.70608      1530.115 8        51.000
R09         8.000    23380174.024 6 124848847.70906      3951.123 6        39.500    23380182.703 6  97104671.94406      3073.012 6        40.000    23380161.235 5  93743339.93105      2966.394 5        32.000
R15        11.000    20899233.701 7 111679167.51107     -3453.253 7        42.500    20899241.057 7  86861597.05607     -2685.843 7        46.000
R16         4.000    19993534.370 8 106801874.81408       756.747 8        48.000    19993539.606 7  83068150.28907       588.519 7        46.500    19993525.435 7  80164511.97907       567.968 7        47.750
R18        22.000    20152238.652 8 107574021.21108      1902.826 8        49.250    20152242.341 7  83668702.75907      1479.974 7        42.000
S21         5.000    38584989.010 6 202765492.58606         4.752 6        40.500
S36        28.000    38464160.769 6 202130548.25106         0.283 6        41.250
> 2026 04 16 10 55 18.0000000  0 19
C12        21.000    22119419.859 8 115181630.88908      1308.954 8        48.000    22119420.244 8  89065735.89408      1012.133 8        53.500
C24        23.000    23410391.234 8 121904053.27508     -2154.132 8        49.750
C25         2.000    23749280.815 7 123668740.19107      1134.324 7        44.000
C26        30.000    26164078.470 6 136243201.73606     -3478.357 6        41.250
C34         7.000    23518305.107 7 122465976.03907      2383.085 7        45.750
E02        26.000    24356436.021 6 127993938.72206     -1942.900 6        38.500    24356441.370 6  95579898.22906     -1450.970 6        37.500    24356437.439 6  98073280.56506     -1488.754 6        38.000    24356439.478 6  96826588.90406     -1469.887 6        40.750
E27        18.000    27653828.124 5 145321869.95405      2769.649 5        35.500    27653828.696 5 108519565.79905      2068.238 5        33.750    27653832.019 6 111350525.93206      2122.284 6        40.500    27653832.336 6 109935039.85806      2095.311 6        40.750
E34        29.000    24151105.124 8 126914914.37808      1642.737 8        49.250    24151109.725 7  94774145.48807      1226.710 7        46.500    24151106.291 7  97246497.86907      1258.721 7        46.250    24151107.807 8  96010319.18308      1242.710 8        49.250
G07        34.000    25245476.955 6 132665872.70706      1442.846 6        41.750    25245476.544 5        34.750    25245478.636 5 103376002.90705      1124.293 5        34.750    25245479.249 6 103376013.89906      1124.572 6        40.250
G08        14.000    23431493.222 7 123133323.28607      3215.685 7        43.000    23431492.798 5        35.250    23431494.863 5  95948056.58805      2505.726 5        35.250    23431496.786 6  95948067.59706      2505.691 6        39.500    23431498.212 8  91950236.91508      2401.340 8        50.500
G16         1.000    20395315.440 8 107178098.39908      -615.380 8        50.250    20395314.770 6        40.000    20395312.766 6  83515400.34706      -479.519 6        40.000
G26        13.000    21929101.280 7 115238201.22607     -2757.556 7        45.000    21929100.856 6        41.750    21929105.242 6  89796017.04806     -2148.744 6        41.750    21929106.217 7  89796027.05207     -2148.797 7        42.500    21929103.793 7  86054518.77107     -2059.284 7        46.250
G27        12.000    21039371.686 7 110562662.15607      2047.267 7        44.750    21039371.351 7        46.000    21039375.804 7  86152725.38507      1595.271 7        46.000    21039376.395 7  86152729.40507      1595.328 7        44.250    21039375.201 8  82563032.31708      1528.872 8        51.000
R09         8.000    23379433.934 6 124844897.53106      3949.650 6        39.750    23379443.316 6  97101599.56706      3071.864 6        40.250    23379421.548 5  93740373.90005      2965.239 5        32.000
R15        11.000    20899880.562 7 111682621.85407     -3455.105 7        43.000    20899887.627 7  86864283.76807     -2687.290 7        46.000
R16         4.000    19993392.919 8 106801119.36308       754.521 8        48.000    19993398.119 7  83067562.72007       586.764 7        46.500    19993383.998 8  80163944.94508       566.278 8        48.000
R18        22.000    20151882.487 8 107572119.44508      1901.018 8        49.250    20151885.855 7  83667223.61007      1478.565 7        42.000
S21         5.000    38584988.867 6 202765488.52406         3.522 6        40.500
S36        28.000    38464158.144 6 202130548.69806        -0.901 6        41.250
> 2026 04 16 10 55 19.0000000  0 19
C12        21.000    22119168.326 7 115180321.66007      1309.206 7        47.750    22119168.849 8  89064723.51308      1012.343 8        53.500
C24        23.000    23410804.935 8 121906207.14908     -2153.966 8        49.750
C25         2.000    23749062.971 7 123667605.61307      1134.479 7        44.000
C26        30.000    26164746.575 6 136246679.69406     -3477.746 6        41.250
C34         7.000    23517847.423 7 122463592.64407      2383.375 7        45.750
E02        26.000    24356805.977 6 127995881.34906     -1942.639 6        38.250    24356810.981 6  95581348.87206     -1450.616 6        37.250    24356807.157 6  98074769.05806     -1488.482 6        37.750    24356809.018 6  96828058.47406     -1469.565 6        40.500
E27        18.000    27653301.264 5 145319099.91705      2770.256 5        35.250    27653301.653 5 108517497.26105      2068.855 5        33.250    27653304.859 6 111348403.44506      2122.559 6        40.500    27653305.154 6 109932944.34706      2095.616 6        40.500
E34        29.000    24150792.652 8 126913271.39508      1642.917 8        49.250    24150797.083 7  94772918.58807      1226.858 7        46.250    24150793.693 7  97245238.95907      1258.831 7        46.250    24150795.147 8  96009076.27908      1242.842 8        49.250
G07        34.000    25245202.017 6 132664429.51106      1443.135 6        41.750    25245201.606 5        34.750    25245204.016 5 103374878.33905      1124.521 5        34.750    25245204.074 6 103374889.34106      1124.453 6        40.000
G08        14.000    23430881.531 7 123130107.27407      3216.005 7        43.000    23430881.111 5        35.250    23430882.877 5  95945550.60905      2505.973 5        35.250    23430884.102 6  95945561.60806      2506.032 6        39.750    23430886.334 8  91947835.34308      2401.600 8        50.500
G16         1.000    20395432.413 8 107178713.63308      -615.458 8        50.250    20395431.743 6        40.000    20395429.847 6  83515879.75006      -479.571 6        40.000
G26        13.000    21929625.578 7 115240958.63607     -2757.533 7        44.750    21929625.154 6        41.750    21929630.005 6  89798165.67506     -2148.723 6        41.750    21929630.412 7  89798175.66907     -2148.658 7        42.500    21929628.757 7  86056577.86607     -2059.235 7        46.250
G27        12.000    21038982.047 7 110560614.51007      2047.508 7        44.500    21038981.717 7        46.000    21038986.134 7  86151129.81707      1595.460 7        46.000    21038986.903 7  86151133.83707      1595.575 7        44.250    21038985.530 8  82561503.22608      1529.039 8        51.000
R09         8.000    23378693.934 6 124840947.74306      3949.752 6        39.500    23378704.085 6  97098527.50506      3072.139 6        40.500    23378682.067 5  93737408.16505      2965.559 5        32.250
R15        11.000    20900527.190 7 111686076.80107     -3454.990 7        43.000    20900534.318 7  86866970.94907     -2687.335 7        46.000
R16         4.000    19993251.745 8 106800364.83508       754.250 8        48.000    19993256.847 7  83066975.85907       586.592 7        46.500    19993242.722 8  80163378.59508       566.092 8        48.000
R18        22.000    20151526.099 8 107570218.17608      1901.138 8        49.250    20151529.815 7  83665744.84807      1478.679 7        42.000
S21         5.000    38584987.543 6 202765484.51906         4.097 6        40.500
S36        28.000    38464158.462 6 202130549.12206        -0.358 6        41.500
> 2026 04 16 10 55 20.0000000  0 19
C12        21.000    22118916.837 7 115179012.23107      1309.514 7        47.000    22118917.419 8  89063710.98408      1012.501 8        53.000
C24        23.000    23411218.551 8 121908360.95508     -2153.775 8        49.000
C25         2.000    23748845.163 7 123666471.08107      1134.513 7        43.250
C26        30.000    26165414.501 6 136250157.19606     -3477.341 6        40.500
C34         7.000    23517389.681 7 122461208.93607      2383.854 7        45.000
E02        26.000    24357174.519 6 127997823.77406     -1942.264 6        37.250    24357180.511 6  95582799.39806     -1450.570 6        36.750    24357176.232 6  98076257.43406     -1488.512 6        37.500    24357178.678 6  96829527.92006     -1469.478 6        40.000
E27        18.000    27652773.005 5 145316329.50705      2770.506 5        34.750    27652774.789 5 108515428.44005      2068.725 5        32.750    27652777.597 6 111346280.66806      2122.742 6        40.250    27652777.941 6 109930848.55406      2095.771 6        40.250
E34        29.000    24150480.188 8 126911628.25308      1643.206 8        48.500    24150484.485 7  94771691.57307      1226.919 7        46.000    24150480.971 7  97243979.93507      1258.942 7        46.000    24150482.491 8  96007833.25908      1242.929 8        49.000
G07        34.000    25244927.441 6 132662986.31906      1443.136 6        41.000    25244927.030 5        34.500    25244929.391 5 103373753.77405      1124.509 5        34.500    25244929.328 6 103373764.77006      1124.537 6        39.250
G08        14.000    23430269.764 7 123126890.89007      3216.583 7        42.250    23430269.344 5        35.000    23430270.828 5  95943044.33805      2506.428 5        35.000    23430272.894 6  95943055.34506      2506.320 6        38.750    23430274.303 8  91945433.50508      2401.907 8        50.250
G16         1.000    20395549.659 8 107179329.03308      -615.510 8        49.500    20395548.989 6        39.750    20395546.954 6  83516359.27906      -479.621 6        39.750
G26        13.000    21930150.958 7 115243715.94907     -2757.409 7        44.000    21930150.529 6        41.500    21930154.759 6  89800314.22906     -2148.630 6        41.500    21930155.595 6  89800324.23106     -2148.689 6        41.750    21930153.314 7  86058636.90007     -2059.157 7        46.000
G27        12.000    21038591.965 7 110558566.72607      2047.871 7        44.000    21038591.639 7        45.500    21038596.441 7  86149534.14307      1595.742 7        45.500    21038596.834 7  86149538.17907      1595.629 7        43.500    21038595.860 8  82559974.04908      1529.094 8        50.750
R09         8.000    23377954.301 6 124836997.76406      3950.030 6        38.500    23377964.850 6  97095455.30406      3072.261 6        39.500    23377942.219 5  93734442.30905      2965.699 5        31.750
R15        11.000    20901174.135 7 111689531.85307     -3455.072 7        42.500    20901180.802 7  86869658.20907     -2687.426 7        45.000
R16         4.000    19993110.679 7 106799610.70807       753.904 7        47.250    19993115.629 7  83066389.31707       586.239 7        45.500    19993101.548 7  80162812.56007       565.802 7        47.500
R18        22.000    20151170.136 8 107568316.88008      1901.254 8        48.250    20151173.132 6  83664266.07106      1478.611 6        40.750
S21         5.000    38584985.826 6 202765479.99406         4.779 6        39.500
S36        28.000    38464158.082 6 202130548.98706         0.363 6        40.500
> 2026 04 16 10 55 21.0000000  0 19
C12        21.000    22118665.465 7 115177703.17807      1307.862 7        47.750    22118666.100 8  89062698.74008      1011.353 8        53.250
C24        23.000    23411632.244 8 121910515.24308     -2155.515 8        49.750
C25         2.000    23748627.444 7 123665337.13007      1132.731 7        44.000
C26        30.000    26166082.311 6 136253634.75406     -3478.547 6        41.250
C34         7.000    23516931.965 7 122458825.49207      2382.269 7        45.750
E02        26.000    24357545.060 6 127999766.59906     -1943.803 6        38.250    24357550.511 6  95584250.21706     -1451.637 6        37.250    24357546.120 6  98077746.08106     -1489.499 6        37.750    24357548.458 6  96830997.65906     -1470.616 6        40.500
E27        18.000    27652247.128 5 145313559.26305      2768.947 5        35.250    27652247.508 5 108513359.73105      2068.035 5        33.250    27652250.446 6 111344158.01106      2121.759 6        40.500    27652250.987 6 109928752.87306      2094.804 6        40.500
E34        29.000    24150167.336 8 126909985.51608      1641.592 8        49.250    24150172.165 7  94770464.85407      1225.784 7        46.500    24150168.221 7  97242721.21607      1257.806 7        46.000    24150169.933 8  96006590.54008      1241.786 8        49.250
G07        34.000    25244652.155 6 132661543.67306      1441.403 6        41.500    25244651.749 5        34.500    25244654.883 5 103372629.63605      1123.172 5        34.500    25244654.655 6 103372640.64806      1123.198 6        39.500
G08        14.000    23429657.214 7 123123674.69807      3215.100 7        43.250    23429656.790 5        34.750    23429658.828 5  95940538.21605      2505.264 5        34.750    23429660.568 6  95940549.23806      2504.952 6        39.000    23429662.330 8  91943031.81108      2400.877 8        50.500
G16         1.000    20395666.512 8 107179945.15308      -617.506 8        50.250    20395665.837 6        39.750    20395664.200 6  83516839.37506      -481.179 6        39.750
G26        13.000    21930675.001 7 115246473.75107     -2759.063 7        44.750    21930674.572 6        41.500    21930679.602 6  89802463.16406     -2149.921 6        41.500    21930679.745 7  89802473.16407     -2149.936 7        42.000    21930678.243 7  86060696.29507     -2060.315 7        46.250
G27        12.000    21038202.728 7 110556519.39207      2046.077 7        44.750    21038202.402 7        45.250    21038206.837 7  86147938.82107      1594.342 7        45.250    21038207.007 7  86147942.85007      1594.400 7        43.500    21038206.104 8  82558445.19008      1527.924 8        51.000
R09         8.000    23377214.672 6 124833048.19206      3948.362 6        39.250    23377225.252 6  97092383.41606      3070.914 6        39.750    23377202.465 5  93731476.77205      2964.469 5        31.750
R15        11.000    20901821.130 7 111692987.54507     -3456.974 7        43.500    20901827.399 7  86872345.97107     -2688.825 7        45.000
R16         4.000    19992969.693 8 106798857.54008       751.664 8        48.250    19992974.760 7  83065803.51907       584.618 7        45.750    19992960.540 7  80162247.23607       564.187 7        47.750
R18        22.000    20150813.935 8 107566416.15008      1899.413 8        49.000    20150817.047 6  83662787.71806      1477.359 6        40.750
S21         5.000    38584987.570 6 202765475.53906         3.435 6        40.250
S36        28.000    38464157.098 6 202130548.93006        -0.983 6        41.250
> 2026 04 16 10 55 22.0000000  0 19
C12        21.000    22118414.263 7 115176394.70407      1308.831 7        47.750    22118414.925 8  89061686.94608      1012.052 8        53.500
C24        23.000    23412046.200 8 121912670.23908     -2154.764 8        49.750
C25         2.000    23748409.877 7 123664204.00207      1133.294 7        44.250
C26        30.000    26166750.238 6 136257112.61906     -3477.380 6        41.500
C34         7.000    23516474.380 7 122456442.53007      2383.299 7        46.000
E02        26.000    24357914.349 6 128001710.07606     -1943.180 6        38.250    24357920.341 6  95585701.50306     -1451.116 6        37.250    24357916.263 6  98079235.21906     -1488.830 6        37.500    24357918.253 6  96832467.86906     -1470.011 6        40.500
E27        18.000    27651719.159 5 145310789.40105      2770.154 5        35.250    27651720.621 5 108511291.35205      2068.786 5        33.250    27651723.103 6 111342035.64606      2122.718 6        40.500    27651723.734 6 109926657.50306      2095.626 6        40.500
E34        29.000    24149855.091 8 126908343.41908      1642.328 8        49.250    24149859.531 7  94769238.60907      1226.431 7        46.500    24149855.949 7  97241462.98807      1258.382 7        46.250    24149857.416 8  96005348.30308      1242.415 8        49.250
G07        34.000    25244377.901 6 132660101.82406      1442.057 6        41.500    25244377.495 5        34.250    25244380.531 5 103371506.11705      1123.675 5        34.250    25244381.166 6 103371517.12606      1123.604 6        39.750
G08        14.000    23429045.040 7 123120458.94607      3216.099 7        43.250    23429044.620 5        35.000    23429046.900 5  95938032.43805      2506.048 5        35.000    23429048.582 6  95938043.44106      2506.119 6        39.250    23429050.321 8  91940630.44308      2401.611 8        50.750
G16         1.000    20395784.352 8 107180562.22408      -616.950 8        50.250    20395783.673 6        39.750    20395781.629 6  83517320.20906      -480.745 6        39.750
G26        13.000    21931199.996 7 115249232.24907     -2758.173 7        44.750    21931199.567 6        41.250    21931204.571 6  89804612.64006     -2149.223 6        41.250    21931205.138 7  89804622.63807     -2149.281 7        42.250    21931203.278 7  86062756.21007     -2059.718 7        46.250
G27        12.000    21037812.937 7 110554472.70607      2047.026 7        44.750    21037812.616 7        45.250    21037817.350 7  86146344.00407      1595.083 7        45.250    21037817.882 7  86146348.03807      1594.984 7        43.500    21037816.666 8  82556916.82708      1528.600 8        51.000
R09         8.000    23376475.433 6 124829099.22806      3949.244 6        39.250    23376486.147 6  97089311.98706      3071.826 6        40.000    23376463.230 5  93728511.67505      2965.143 5        31.250
R15        11.000    20902468.066 7 111696444.11207     -3456.267 7        43.750    20902474.116 7  86875034.41607     -2688.336 7        45.000
R16         4.000    19992829.128 8 106798105.59208       751.949 8        48.250    19992833.658 7  83065218.67707       584.816 7        45.750    19992819.778 8  80161682.83108       564.388 8        48.000
R18        22.000    20150458.012 8 107564516.21308      1900.168 8        49.000    20150460.900 6  83661309.99606      1477.872 6        40.750
S21         5.000    38584986.005 6 202765471.38006         4.567 6        40.250
S36        28.000    38464157.165 6 202130549.18606         0.039 6        41.500
> 2026 04 16 10 55 23.0000000  0 19
C12        21.000    22118163.011 7 115175086.15307      1308.659 7        47.750    22118163.709 8  89060675.09208      1011.972 8        53.250
C24        23.000    23412459.981 8 121914825.28408     -2154.967 8        49.750
C25         2.000    23748192.230 7 123663071.00807      1133.029 7        44.250
C26        30.000    26167418.025 6 136260590.13806     -3477.231 6        41.500
C34         7.000    23516016.736 7 122454059.38107      2383.282 7        46.000
E02        26.000    24358284.393 6 128003653.45606     -1943.316 6        38.000    24358289.871 6  95587152.72606     -1450.995 6        37.250    24358285.954 6  98080724.31606     -1489.151 6        37.500    24358287.962 6  96833938.02606     -1469.989 6        40.250
E27        18.000    27651192.456 5 145308019.24705      2770.415 5        35.000    27651193.399 5 108509222.73105      2068.690 5        33.250    27651196.087 6 111339913.07806      2122.666 6        40.500    27651196.690 6 109924561.90006      2095.734 6        40.500
E34        29.000    24149542.659 8 126906701.27508      1642.280 8        49.250    24149547.135 7  94768012.33807      1226.379 7        46.250    24149543.388 7  97240204.71907      1258.385 7        46.000    24149544.921 8  96004106.03408      1242.382 8        49.000
G07        34.000    25244103.903 6 132658660.08706      1441.750 6        41.250    25244103.497 5        34.250    25244106.197 5 103370382.68605      1123.446 5        34.250    25244106.961 6 103370393.68106      1123.451 6        39.250
G08        14.000    23428433.523 7 123117242.93707      3216.203 7        43.000    23428433.103 5        34.750    23428434.918 5  95935526.45905      2506.130 5        34.750    23428436.537 6  95935537.45706      2506.336 6        39.000    23428438.344 8  91938228.87608      2401.695 8        50.500
G16         1.000    20395901.728 8 107181179.56608      -617.360 8        50.000    20395901.049 6        39.750    20395899.112 6  83517801.25506      -481.061 6        39.750
G26        13.000    21931725.126 7 115251990.79707     -2758.480 7        44.500    21931724.697 6        41.500    21931729.561 6  89806762.15606     -2149.465 6        41.500    21931729.950 7  89806772.14807     -2149.397 7        42.000    21931728.376 7  86064816.16107     -2059.876 7        46.250
G27        12.000    21037423.570 7 110552426.02707      2046.809 7        44.750    21037423.253 7        45.250    21037427.863 7  86144749.19107      1594.915 7        45.250    21037428.283 7  86144753.21807      1594.883 7        43.250    21037427.161 8  82555388.46408      1528.428 8        51.000
R09         8.000    23375736.354 6 124825150.19106      3949.208 6        39.000    23375746.956 6  97086240.51906      3071.696 6        39.750    23375723.538 5  93725546.50705      2964.991 5        31.000
R15        11.000    20903114.855 7 111699900.85707     -3456.674 7        43.750    20903120.932 7  86877722.98907     -2688.580 7        44.750
R16         4.000    19992688.531 8 106797354.17408       751.260 8        48.250    19992693.025 7  83064634.24307       584.268 7        45.500    19992679.091 7  80161118.82507       563.837 7        47.500
R18        22.000    20150102.169 8 107562616.36008      1899.897 8        49.000    20150104.704 6  83659832.34006      1477.549 6        40.500
S21         5.000    38584984.597 6 202765466.78006         4.876 6        40.250
S36        28.000    38464156.249 6 202130549.06906         0.456 6        41.250
> 2026 04 16 10 55 24.0000000  0 19
C12        21.000    22117911.903 7 115173777.83407      1308.417 7        47.750    22117912.439 8  89059663.41508      1011.785 8        53.500
C24        23.000    23412873.892 8 121916980.65708     -2155.360 8        50.000
C25         2.000    23747974.811 7 123661938.47507      1132.482 7        44.250
C26        30.000    26168085.795 6 136264067.59006     -3477.228 6        41.500
C34         7.000    23515559.244 7 122451676.33407      2383.291 7        46.000
E02        26.000    24358654.085 6 128005597.08806     -1943.437 6        38.250    24358660.184 6  95588604.13806     -1451.324 6        37.500    24358656.298 6  98082213.58706     -1489.209 6        37.750    24358657.984 6  96835408.37306     -1470.272 6        40.500
E27        18.000    27650664.800 5 145305249.12805      2770.426 5        35.500    27650666.696 5 108507154.13105      2068.956 5        33.750    27650668.927 6 111337790.52006      2122.687 6        40.500    27650669.437 6 109922466.32806      2095.739 6        40.750
E34        29.000    24149230.079 8 126905059.39708      1641.904 8        49.250    24149234.474 7  94766786.25407      1226.161 7        46.500    24149231.165 7  97238946.66107      1258.082 7        46.250    24149232.467 8  96002863.96208      1242.116 8        49.250
G07        34.000    25243829.721 6 132657218.74706      1441.296 6        41.250    25243829.319 5        34.250    25243831.916 5 103369259.56405      1123.094 5        34.250    25243831.612 6 103369270.56306      1123.251 6        39.500
G08        14.000    23427821.564 7 123114026.97007      3216.167 7        43.000    23427821.140 5        34.750    23427822.941 5  95933020.51205      2506.102 5        34.750    23427824.381 6  95933031.51806      2506.173 6        39.500    23427826.389 8  91935827.34308      2401.690 8        50.750
G16         1.000    20396018.961 8 107181797.48408      -617.984 8        50.000    20396018.277 6        39.750    20396016.707 6  83518282.74906      -481.544 6        39.750
G26        13.000    21932249.987 7 115254749.65907     -2758.761 7        44.500    21932249.558 6        41.250    21932254.610 6  89808911.91606     -2149.683 6        41.250    21932254.539 7  89808921.92307     -2149.800 7        42.250    21932253.309 7  86066876.35007     -2060.111 7        46.500
G27        12.000    21037034.239 7 110550379.63107      2046.524 7        45.000    21037033.926 7        45.250    21037038.434 7  86143154.59807      1594.695 7        45.250    21037038.478 7  86143158.62007      1594.739 7        43.500    21037037.745 8  82553860.30708      1528.223 8        51.250
R09         8.000    23374996.850 6 124821201.41906      3948.931 6        39.250    23375007.180 6  97083169.25506      3071.364 6        40.250    23374983.650 5  93722581.55805      2964.703 5        31.250
R15        11.000    20903762.078 7 111703358.08507     -3457.182 7        43.750    20903767.824 7  86880411.93507     -2688.858 7        44.750
R16         4.000    19992548.127 8 106796603.59608       750.440 8        48.500    19992552.415 7  83064050.46007       583.603 7        45.750    19992538.580 8  80160555.44308       563.303 8        48.000
R18        22.000    20149746.290 8 107560716.89308      1899.493 8        49.000    20149748.969 6  83658354.97406      1477.385 6        40.750
S21         5.000    38584983.752 6 202765462.10106         4.949 6        40.250
S36        28.000    38464157.210 6 202130548.90606         0.370 6        41.250
> 2026 04 16 10 55 25.0000000  0 19
C12        21.000    22117660.799 7 115172469.87307      1308.125 7        47.500    22117661.286 8  89058652.02108      1011.438 8        53.250
C24        23.000    23413288.023 8 121919136.51808     -2155.748 8        49.750
C25         2.000    23747757.423 7 123660806.51607      1132.020 7        44.250
C26        30.000    26168753.556 6 136267545.11206     -3477.225 6        41.750
C34         7.000    23515101.654 7 122449293.54807      2382.956 7        46.000
E02        26.000    24359023.700 6 128007541.11206     -1943.908 6        38.250    24359029.907 6  95590055.83706     -1451.544 6        37.250    24359025.516 6  98083703.15806     -1489.401 6        37.500    24359027.819 6  96836879.00906     -1470.518 6        40.250
E27        18.000    27650137.341 5 145302479.17705      2770.166 5        35.000    27650139.603 5 108505085.65205      2068.587 5        33.750    27650141.982 6 111335668.07906      2122.640 6        40.250    27650142.394 6 109920370.86406      2095.669 6        40.500
E34        29.000    24148917.794 8 126903417.91308      1641.617 8        49.250    24148922.257 7  94765560.47307      1225.867 7        46.250    24148918.711 7  97237688.89707      1257.854 7        46.000    24148920.182 8  96001622.18908      1241.857 8        49.000
G07        34.000    25243555.691 6 132655777.96206      1440.847 6        41.000    25243555.289 5        34.250    25243557.766 5 103368136.87305      1122.733 5        34.250    25243558.016 6 103368147.88206      1122.619 6        39.500
G08        14.000    23427209.309 7 123110811.20507      3215.940 7        42.750    23427208.889 5        35.000    23427211.004 5  95930514.72605      2505.921 5        35.000    23427211.183 6  95930525.72306      2506.049 6        39.250    23427214.559 8  91933425.95908      2401.545 8        50.750
G16         1.000    20396137.065 8 107182416.12008      -618.665 8        50.000    20396136.386 6        39.750    20396134.440 6  83518764.80206      -482.078 6        39.750
G26        13.000    21932774.964 7 115257509.01307     -2759.212 7        44.500    21932774.535 6        41.500    21932779.753 6  89811062.06106     -2150.038 6        41.500    21932780.554 7  89811072.06107     -2150.093 7        42.500    21932778.497 7  86068936.91007     -2060.487 7        46.250
G27        12.000    21036645.159 7 110548333.67207      2046.078 7        44.750    21036644.846 7        45.250    21036649.085 7  86141560.34507      1594.344 7        45.250    21036649.675 7  86141564.37307      1594.238 7        43.750    21036648.405 8  82552332.47708      1527.899 8        51.000
R09         8.000    23374257.021 6 124817253.03706      3948.548 6        39.500    23374267.609 6  97080098.28406      3071.089 6        40.500    23374244.428 5  93719616.87105      2964.708 5        31.250
R15        11.000    20904408.724 7 111706815.92707     -3457.792 7        43.750    20904414.649 7  86883101.37507     -2689.470 7        45.000
R16         4.000    19992407.704 8 106795853.98208       749.475 8        48.500    19992411.930 7  83063467.42807       582.922 7        46.000    19992398.247 7  80159992.78507       562.582 7        47.750
R18        22.000    20149390.492 8 107558817.97208      1899.059 8        49.000    20149393.377 6  83656878.04506      1476.988 6        40.750
S21         5.000    38584982.848 6 202765457.47906         4.938 6        40.250
S36        28.000    38464156.794 6 202130548.74206         0.413 6        41.250
> 2026 04 16 10 55 26.0000000  0 19
C12        21.000    22117409.825 7 115171162.06307      1307.635 7        47.750    22117410.169 8  89057640.73508      1011.148 8        53.500
C24        23.000    23413702.167 8 121921292.64008     -2156.343 8        49.750
C25         2.000    23747540.030 7 123659674.93307      1131.323 7        44.500
C26        30.000    26169421.357 6 136271022.49606     -3477.352 6        41.750
C34         7.000    23514644.019 7 122446910.79907      2382.610 7        46.250
E02        26.000    24359393.790 6 128009485.29806     -1944.391 6        38.000    24359399.388 6  95591507.66506     -1451.900 6        37.250    24359396.084 6  98085192.86506     -1489.820 6        37.500    24359397.801 6  96838349.76706     -1470.796 6        40.500
E27        18.000    27649609.788 5 145299709.17605      2769.905 5        35.250    27649612.140 5 108503017.16205      2068.318 5        33.750    27649614.970 6 111333545.59706      2122.536 6        40.250    27649615.297 6 109918275.37306      2095.465 6        40.500
E34        29.000    24148605.568 8 126901776.61408      1641.139 8        49.250    24148609.932 7  94764334.82607      1225.534 7        46.500    24148606.256 7  97236431.28407      1257.496 7        46.000    24148607.803 8  96000380.56108      1241.512 8        49.250
G07        34.000    25243280.807 6 132654337.50506      1440.168 6        41.000    25243280.410 5        34.250    25243283.677 5 103367014.43805      1122.209 5        34.250    25243284.429 6 103367025.44606      1122.086 6        39.500
G08        14.000    23426597.569 7 123107595.41707      3215.748 7        42.750    23426597.145 5        35.000    23426599.071 5  95928008.91705      2505.776 5        35.000    23426600.332 6  95928019.93306      2505.636 6        39.750    23426602.658 8  91931024.56208      2401.361 8        50.750
G16         1.000    20396254.713 8 107183035.25408      -619.485 8        50.000    20396254.029 6        40.000    20396252.268 6  83519247.24206      -482.715 6        40.000
G26        13.000    21933299.986 7 115260268.61407     -2759.821 7        44.500    21933299.557 6        41.500    21933304.932 6  89813212.39506     -2150.506 6        41.500    21933304.744 7  89813222.39707     -2150.549 7        42.750    21933303.631 7  86070997.64307     -2060.876 7        46.250
G27        12.000    21036255.801 7 110546287.91407      2045.539 7        45.000    21036255.488 7        45.250    21036259.781 7  86139966.24707      1593.929 7        45.250    21036260.036 7  86139970.28207      1593.871 7        43.500    21036259.142 8  82550804.80808      1527.499 8        51.250
R09         8.000    23373517.611 6 124813304.85306      3947.978 6        39.500    23373528.079 6  97077027.47006      3070.770 6        40.750    23373504.889 5  93716652.37805      2964.568 5        31.000
R15        11.000    20905055.817 7 111710274.18207     -3458.514 7        43.750    20905061.880 7  86885791.12307     -2689.968 7        44.750
R16         4.000    19992267.385 8 106795105.07108       748.441 8        48.500    19992271.682 7  83062884.94407       582.145 7        46.000    19992258.061 7  80159430.66607       561.755 7        47.750
R18        22.000    20149034.869 8 107556919.39408      1898.306 8        49.000    20149037.400 6  83655401.36606      1476.455 6        41.000
S21         5.000    38584981.386 6 202765452.68406         4.720 6        40.250
S36        28.000    38464155.833 6 202130548.46806         0.262 6        41.000
> 2026 04 16 10 55 27.0000000  0 19
C12        21.000    22117158.850 7 115169854.65007      1306.241 7        47.750    22117159.029 8  89056629.75908      1010.124 8        53.500
C24        23.000    23414116.337 8 121923449.28908     -2157.957 8        50.000
C25         2.000    23747322.893 7 123658543.98607      1129.703 7        44.500
C26        30.000    26170089.171 6 136274500.01106     -3478.696 6        41.750
C34         7.000    23514186.608 7 122444528.34207      2381.344 7        46.250
E02        26.000    24359764.103 6 128011429.90906     -1945.864 6        38.250    24359770.014 6  95592959.80406     -1452.914 6        37.250    24359765.869 6  98086682.89606     -1490.943 6        37.500    24359767.890 6  96839820.86006     -1471.885 6        40.500
E27        18.000    27649083.451 5 145296939.36305      2768.831 5        35.250    27649085.722 5 108500948.78905      2067.398 5        34.000    27649087.860 6 111331423.28206      2121.577 6        40.250    27649088.302 6 109916180.02706      2094.561 6        40.750
E34        29.000    24148293.118 8 126900135.76708      1639.673 8        49.250    24148297.714 7  94763109.52907      1224.386 7        46.500    24148294.088 7  97235174.01107      1256.404 7        46.000    24148295.568 8  95999139.27308      1240.391 8        49.250
G07        34.000    25243007.555 6 132652897.65006      1438.620 6        41.000    25243007.162 5        34.250    25243009.701 5 103365892.47305      1121.001 5        34.250    25243009.554 6 103365903.46406      1121.111 6        39.500
G08        14.000    23425985.507 7 123104379.86807      3214.320 7        42.750    23425985.083 5        35.250    23425987.175 5  95925503.29405      2504.659 5        35.250    23425988.480 6  95925514.28906      2504.863 6        39.750    23425990.770 8  91928623.33908      2400.378 8        51.000
G16         1.000    20396372.518 8 107183655.15408      -621.227 8        50.000    20396371.839 6        40.000    20396370.238 6  83519730.28106      -484.074 6        40.000
G26        13.000    21933825.424 7 115263028.73707     -2761.250 7        44.500    21933824.995 6        41.500    21933830.218 6  89815363.13706     -2151.621 6        41.500    21933830.079 7  89815373.13307     -2151.679 7        42.750    21933828.934 7  86073058.76807     -2061.975 7        46.500
G27        12.000    21035866.573 7 110544242.65007      2044.055 7        45.000    21035866.265 7        45.250    21035870.571 7  86138372.53807      1592.764 7        45.250    21035871.161 7  86138376.55407      1592.845 7        43.750    21035869.949 8  82549277.48808      1526.431 8        51.250
R09         8.000    23372778.563 6 124809357.09006      3946.508 6        39.750    23372788.812 6  97073956.99806      3069.560 6        40.750    23372765.699 5  93713688.15105      2963.561 5        31.000
R15        11.000    20905703.200 7 111713733.09307     -3460.208 7        44.000    20905709.170 7  86888481.38407     -2691.261 7        45.000
R16         4.000    19992127.356 8 106794357.14608       746.449 8        48.250    19992131.707 7  83062303.22207       580.522 7        46.250    19992118.077 8  80158869.28108       560.197 8        48.000
R18        22.000    20148679.285 8 107555021.38808      1896.683 8        49.000    20148681.901 6  83653925.14906      1475.134 6        41.000
S21         5.000    38584981.069 6 202765447.97506         3.682 6        40.250
S36        28.000    38464157.554 6 202130548.32906        -0.866 6        41.500
> 2026 04 16 10 55 28.0000000  0 19
C12        21.000    22116907.925 7 115168548.08107      1306.808 7        47.750    22116908.100 8  89055619.44008      1010.472 8        53.500
C24        23.000    23414530.749 8 121925606.89208     -2157.417 8        50.000
C25         2.000    23747105.934 7 123657414.09207      1130.004 7        44.500
C26        30.000    26170757.124 6 136277978.06306     -3477.584 6        41.750
C34         7.000    23513729.183 7 122442146.61707      2381.979 7        46.250
E02        26.000    24360134.492 6 128013375.39406     -1945.250 6        38.000    24360139.934 6  95594412.61406     -1452.762 6        37.250    24360136.513 6  98088173.57906     -1490.676 6        37.500    24360138.033 6  96841292.60206     -1471.720 6        40.500
E27        18.000    27648556.278 5 145294170.21305      2769.384 5        35.000    27648558.500 5 108498880.91805      2067.994 5        33.500    27648560.861 6 111329301.46206      2122.026 6        40.250    27648561.268 6 109914085.18406      2095.017 6        40.500
E34        29.000    24147981.361 8 126898495.80908      1640.141 8        49.250    24147985.747 7  94761884.87907      1224.713 7        46.500    24147981.968 7  97233917.42107      1256.689 7        46.000    24147983.502 8  95997898.65408      1240.702 8        49.250
G07        34.000    25242733.458 6 132651458.81106      1439.065 6        41.000    25242733.065 5        34.500    25242735.926 5 103364771.29905      1121.356 5        34.500    25242735.863 6 103364782.29706      1121.302 6        39.500
G08        14.000    23425373.006 7 123101164.97907      3215.175 7        42.500    23425372.586 5        35.250    23425375.408 5  95922998.18705      2505.333 5        35.250    23425375.291 6  95923009.19906      2505.459 6        39.750    23425378.971 8  91926222.62508      2400.947 8        51.000
G16         1.000    20396490.860 8 107184276.25108      -621.011 8        50.000    20396490.181 6        40.000    20396488.423 6  83520214.25006      -483.901 6        40.000
G26        13.000    21934350.938 7 115265789.82507     -2760.807 7        44.500    21934350.509 6        41.750    21934355.683 6  89817514.63106     -2151.276 6        41.750    21934355.629 7  89817524.62307     -2151.238 7        42.750    21934354.319 7  86075120.61707     -2061.657 7        46.500
G27        12.000    21035477.685 7 110542198.29207      2044.595 7        44.750    21035477.377 7        45.250    21035481.535 7  86136779.53007      1593.192 7        45.250    21035482.009 7  86136783.54407      1593.250 7        43.500    21035480.945 8  82547750.86208      1526.788 8        51.250
R09         8.000    23372039.708 6 124805410.17606      3947.030 6        39.750    23372049.685 6  97070887.16606      3070.116 6        40.750    23372026.544 5  93710724.59505      2963.683 5        31.750
R15        11.000    20906350.696 7 111717193.13407     -3459.964 7        44.000    20906356.714 7  86891172.52007     -2691.051 7        45.000
R16         4.000    19991987.689 8 106793610.66308       746.373 8        48.250    19991991.794 7  83061722.62307       580.541 7        46.250    19991978.393 8  80158308.97408       560.224 8        48.000
R18        22.000    20148323.881 8 107553124.40408      1897.119 8        49.000    20148326.452 6  83652449.70506      1475.617 6        41.250
S21         5.000    38584981.288 6 202765443.81206         4.468 6        40.250
S36        28.000    38464158.574 6 202130548.76406        -0.118 6        41.250
> 2026 04 16 10 55 29.0000000  0 19
C12        21.000    22116657.005 7 115167241.58607      1306.375 7        47.500    22116657.161 8  89054609.17108      1010.164 8        53.500
C24        23.000    23414945.175 8 121927764.68508     -2157.984 8        49.750
C25         2.000    23746889.110 7 123656284.50507      1129.250 7        44.500
C26        30.000    26171425.028 6 136281455.92706     -3477.808 6        41.750
C34         7.000    23513272.009 7 122439764.85307      2381.685 7        46.250
E02        26.000    24360504.514 6 128015320.98006     -1945.888 6        38.000    24360510.515 6  95595865.46806     -1452.922 6        37.250    24360506.589 6  98089664.34206     -1490.756 6        37.500    24360508.377 6  96842764.41406     -1471.838 6        40.500
E27        18.000    27648028.779 5 145291400.91105      2769.265 5        34.750    27648031.551 5 108496812.91205      2068.052 5        33.750    27648033.679 6 111327179.53406      2121.869 6        40.500    27648034.345 6 109911990.22606      2094.923 6        40.750
E34        29.000    24147669.246 8 126896855.95008      1639.686 8        49.250    24147673.628 7  94760660.31607      1224.422 7        46.500    24147669.773 7  97232660.90507      1256.416 7        46.000    24147671.468 8  95996658.11508      1240.415 8        49.250
G07        34.000    25242460.367 6 132650020.24306      1438.315 6        41.000    25242459.974 5        34.250    25242462.191 5 103363650.33605      1120.768 5        34.250    25242461.869 6 103363661.33006      1120.750 6        39.250
G08        14.000    23424761.950 7 123097950.01507      3214.830 7        42.250    23424761.526 5        35.250    23424763.636 5  95920493.02705      2505.073 5        35.250    23424764.208 6  95920504.03806      2505.057 6        39.500    23424767.218 8  91923821.83808      2400.727 8        51.000
G16         1.000    20396609.277 8 107184897.77508      -621.817 8        50.000    20396608.598 6        40.000    20396606.693 6  83520698.55606      -484.533 6        40.000
G26        13.000    21934876.327 7 115268551.08407     -2761.434 7        44.500    21934875.898 6        41.750    21934881.175 6  89819666.25806     -2151.766 6        41.750    21934881.174 7  89819676.25707     -2151.767 7        42.750    21934879.949 7  86077182.59407     -2062.144 7        46.500
G27        12.000    21035088.788 7 110540154.07707      2044.015 7        44.750    21035088.484 7        45.250    21035092.527 7  86135186.63607      1592.739 7        45.250    21035092.607 7  86135190.66007      1592.680 7        43.500    21035091.990 8  82546224.33608      1526.375 8        51.500
R09         8.000    23371300.893 6 124801463.37206      3946.645 6        40.000    23371310.838 6  97067817.43906      3069.592 6        40.750    23371287.461 5  93707761.10605      2963.238 5        31.250
R15        11.000    20906998.357 7 111720653.52807     -3460.616 7        43.750    20907004.120 7  86893863.94107     -2691.610 7        45.000
R16         4.000    19991848.090 8 106792864.85608       745.339 8        48.000    19991852.333 7  83061142.55707       579.693 7        46.250    19991838.780 8  80157749.17608       559.409 8        48.000
R18        22.000    20147968.615 8 107551227.68608      1896.440 8        49.000    20147971.360 6  83650974.50506      1474.849 6        41.250
S21         5.000    38584981.225 6 202765439.38806         4.458 6        40.250
S36        28.000    38464158.212 6 202130548.99606        -0.285 6        41.500
> 2026 04 16 10 55 30.0000000  0 19
C12        21.000    22116406.169 7 115165935.31707      1305.891 7        47.750    22116406.249 8  89053599.08408      1009.797 8        53.500
C24        23.000    23415359.685 8 121929922.82008     -2158.535 8        50.000
C25         2.000    23746672.294 7 123655155.35007      1128.710 7        44.750
C26        30.000    26172092.847 6 136284933.71306     -3478.045 6        41.750
C34         7.000    23512814.647 7 122437383.20807      2381.307 7        46.250
E02        26.000    24360874.872 6 128017266.78606     -1946.094 6        38.250    24360880.931 6  95597318.51106     -1453.303 6        37.500    24360877.085 6  98091155.29206     -1491.152 6        37.750    24360878.574 6  96844236.40806     -1472.230 6        40.500
E27        18.000    27647502.339 5 145288631.64505      2769.112 5        34.750    27647504.534 5 108494744.98105      2067.780 5        34.000    27647506.967 6 111325057.63006      2121.727 6        40.000    27647507.360 6 109909895.30106      2094.758 6        40.500
E34        29.000    24147357.149 8 126895216.35408      1639.259 8        49.500    24147361.683 7  94759435.94007      1224.067 7        46.750    24147357.909 7  97231404.59307      1256.029 7        46.000    24147359.447 8  95995417.77108      1240.069 8        49.250
G07        34.000    25242185.957 6 132648582.08106      1437.625 6        41.000    25242185.564 5        34.250    25242188.532 5 103362529.69005      1120.229 5        34.250    25242188.108 6 103362540.68506      1120.308 6        39.500
G08        14.000    23424150.277 7 123094735.08307      3214.649 7        42.500    23424149.853 5        35.250    23424151.869 5  95917987.88505      2504.920 5        35.250    23424152.280 6  95917998.89706      2504.934 6        39.500    23424155.518 8  91921421.08208      2400.561 8        51.000
G16         1.000    20396727.561 8 107185519.87208      -622.626 8        50.000    20396726.877 6        40.250    20396725.075 6  83521183.30606      -485.163 6        40.250
G26        13.000    21935401.756 7 115271312.68407     -2762.079 7        44.500    21935401.327 6        41.750    21935406.729 6  89821818.15006     -2152.265 6        41.750    21935407.037 7  89821828.15107     -2152.308 7        42.750    21935405.186 7  86079244.82607     -2062.519 7        46.500
G27        12.000    21034699.431 7 110538110.14907      2043.616 7        45.000    21034699.132 7        45.250    21034703.571 7  86133593.96507      1592.427 7        45.250    21034703.893 7  86133597.98507      1592.348 7        43.500    21034702.999 8  82544698.02408      1526.053 8        51.500
R09         8.000    23370561.502 6 124797516.88106      3946.193 6        40.000    23370571.670 6  97064747.93306      3069.212 6        40.750    23370548.579 5  93704797.88905      2962.800 5        31.500
R15        11.000    20907646.205 7 111724114.42307     -3461.378 7        43.500    20907651.647 7  86896555.74107     -2692.130 7        45.000
R16         4.000    19991708.557 8 106792119.87608       744.325 8        48.000    19991713.221 7  83060563.11907       578.970 7        46.500    19991699.310 8  80157189.99308       558.727 8        48.000
R18        22.000    20147613.443 8 107549331.36808      1895.862 8        49.000    20147616.130 6  83649499.57606      1474.650 6        41.250
S21         5.000    38584979.834 6 202765434.86206         4.328 6        40.500
S36        28.000    38464160.836 6 202130549.16506        -0.200 6        41.750
> 2026 04 16 10 55 31.0000000  0 19
C12        21.000    22116155.302 8 115164629.16308      1306.478 8        48.000    22116155.427 8  89052589.08108      1010.232 8        53.500
C24        23.000    23415774.236 8 121932081.18708     -2158.113 8        50.000
C25         2.000    23746455.604 7 123654026.55007      1129.009 7        44.750
C26        30.000    26172760.814 7 136288411.32307     -3477.101 7        42.000
C34         7.000    23512357.160 7 122435001.56107      2382.021 7        46.500
E02        26.000    24361245.703 6 128019212.73806     -1945.569 6        38.750    24361250.971 6  95598771.67006     -1452.955 6        37.500    24361247.282 6  98092646.34806     -1490.859 6        37.750    24361248.847 6  96845708.51606     -1471.955 6        40.500
E27        18.000    27646976.051 5 145285862.30705      2769.815 5        34.750    27646978.390 5 108492676.95005      2068.221 5        34.000    27646979.700 6 111322935.67206      2122.258 6        40.250    27646980.465 6 109907800.30906      2095.272 6        40.500
E34        29.000    24147045.222 8 126893576.91808      1639.711 8        49.500    24147049.827 7  94758211.68207      1224.508 7        46.750    24147045.946 7  97230148.40307      1256.449 7        46.250    24147047.507 8  95994177.54808      1240.466 8        49.500
G07        34.000    25241912.946 6 132647144.21106      1438.250 6        41.250    25241912.557 5        34.500    25241914.932 5 103361409.26905      1120.715 5        34.500    25241914.409 6 103361420.26606      1120.631 6        39.250
G08        14.000    23423537.240 7 123091520.11207      3215.270 7        42.750    23423536.816 5        35.250    23423540.093 5  95915482.71505      2505.408 5        35.250    23423541.425 6  95915493.72706      2505.420 6        39.750    23423543.572 8  91919020.29108      2401.076 8        51.000
G16         1.000    20396845.960 8 107186142.43808      -622.432 8        50.250    20396845.281 6        40.250    20396843.546 6  83521668.42206      -485.011 6        40.250
G26        13.000    21935927.802 7 115274074.50407     -2761.605 7        44.750    21935927.373 7        42.000    21935932.323 7  89823970.21307     -2151.901 7        42.000    21935932.368 7  89823980.21807     -2151.880 7        42.750    21935930.856 7  86081307.22907     -2062.287 7        46.500
G27        12.000    21034310.900 7 110536066.41207      2043.993 7        45.000    21034310.601 7        45.250    21034314.661 7  86132001.44307      1592.721 7        45.250    21034315.144 7  86132005.46107      1592.678 7        43.500    21034314.124 8  82543171.85608      1526.348 8        51.500
R09         8.000    23369822.562 6 124793570.49706      3946.695 6        40.000    23369832.372 6  97061678.53506      3069.580 6        40.750    23369809.344 5  93701834.72105      2963.283 5        31.500
R15        11.000    20908293.933 7 111727575.70107     -3461.105 7        43.250    20908299.339 7  86899247.85607     -2691.968 7        44.750
R16         4.000    19991569.136 8 106791375.61108       744.274 8        48.000    19991574.122 7  83059984.24607       578.892 7        46.750    19991559.996 8  80156631.35908       558.592 8        48.000
R18        22.000    20147258.351 8 107547435.32408      1896.261 8        48.750    20147261.048 6  83648024.87606      1474.942 6        41.250
S21         5.000    38584978.158 6 202765430.15106         5.139 6        40.500
S36        28.000    38464160.505 6 202130549.15306         0.425 6        41.750
